{"type":"FeatureCollection","features":[{"type":"Feature","properties":{"name":"Gólyavár","marker-symbol":"college","marker-size":"large"},"geometry":{"type":"Point","coordinates":[19.06242191791534,47.493055357063255]}},{"type":"Feature","properties":{"name":"Hotel Erzsébet City Center","marker-symbol":"lodging"},"geometry":{"type":"Point","coordinates":[19.057722687721252,47.49156923870154]}},{"type":"Feature","properties":{"name":"Hummus Bar","URL":"http://www.hummusbar.hu/eng/our-restaurants/","marker-symbol":"restaurant"},"geometry":{"type":"Point","coordinates":[19.050942063331604,47.50140945919395]}},{"type":"Feature","properties":{"name":"Mlinar","URL":"http://www.mlinar.hr/en/madarska/","marker-symbol":"bakery"},"geometry":{"type":"Point","coordinates":[19.056617617607117,47.497122031809965]}},{"type":"Feature","properties":{"name":"Cserpes Tejívó","URL":"http://www.cserpestejivo.hu/index-en.html","marker-symbol":"bakery"},"geometry":{"type":"Point","coordinates":[19.054235816001892,47.49719814304075]}},{"type":"Feature","properties":{"name":"Iguana","URL":"http://www.iguana.hu/pages.php?aid=4&LangID=2","marker-symbol":"restaurant"},"geometry":{"type":"Point","coordinates":[19.04906451702118,47.504507931355626]}},{"type":"Feature","properties":{"name":"Daubner","URL":"http://daubnercukraszda.hu/","marker-symbol":"bakery"},"geometry":{"type":"Point","coordinates":[19.032123684883118,47.52846689611063]}},{"type":"Feature","properties":{"name":"Ring Café","URL":"http://ringcafe.hu/","marker-symbol":"restaurant"},"geometry":{"type":"Point","coordinates":[19.061129093170166,47.50405494976344]}},{"type":"Feature","properties":{"name":"Big Fish","URL":"https://www.facebook.com/thebigfish.hu","marker-symbol":"restaurant"},"geometry":{"type":"Point","coordinates":[19.061880111694336,47.504526050538004]}},{"type":"Feature","properties":{"name":"Fragola","URL":"http://www.fragolafagylaltozo.hu"},"geometry":{"type":"Point","coordinates":[19.06155824661255,47.50266336586393]}},{"type":"Feature","properties":{"name":400,"URL":"http://400bar.hu/etlap/","marker-symbol":"bar"},"geometry":{"type":"Point","coordinates":[19.06054973602295,47.499408944930224]}},{"type":"Feature","properties":{"name":"Csalánosi Csárda","URL":"http://csalanosicsarda.hu/obuda/etlap","marker-symbol":"restaurant"},"geometry":{"type":"Point","coordinates":[19.044617414474487,47.54115748901287]}},{"type":"Feature","properties":{"name":"Numan Pékség","marker-symbol":"bakery"},"geometry":{"type":"Point","coordinates":[19.058682918548584,47.52484458823052]}},{"type":"Feature","properties":{"name":"Rétesbolt","URL":"http://www.retesbolt.eu/","marker-symbol":"bakery"},"geometry":{"type":"Point","coordinates":[19.07703995704651,47.5254386638712]}},{"type":"Feature","properties":{"name":"Népliget","marker-symbol":"bus"},"geometry":{"type":"Point","coordinates":[19.09994602203369,47.475911695481756]}},{"type":"Feature","properties":{"name":"Nyugati Station","marker-symbol":"rail"},"geometry":{"type":"Point","coordinates":[19.057073593139645,47.51050503915368]}},{"type":"Feature","properties":{"name":"Keleti Station","marker-symbol":"rail"},"geometry":{"type":"Point","coordinates":[19.08398151397705,47.50059041728004]}},{"type":"Feature","properties":{"name":"Déli Station","marker-symbol":"rail"},"geometry":{"type":"Point","coordinates":[19.02510166168213,47.49856087783393]}},{"type":"Feature","properties":{"name":"Airport","marker-symbol":"airport"},"geometry":{"type":"Point","coordinates":[19.26229476928711,47.43128078117934]}},{"type":"Feature","properties":{"name":"Gellért Baths","marker-symbol":"swimming"},"geometry":{"type":"Point","coordinates":[19.052492380142212,47.48403288391224]}},{"type":"Feature","properties":{"name":"Széchenyi Baths","marker-symbol":"swimming"},"geometry":{"type":"Point","coordinates":[19.082415103912354,47.51827308327202]}},{"type":"Feature","properties":{"name":"The Donut Library","URL":"https://www.facebook.com/thedonutlibrary","marker-symbol":"bakery"},"geometry":{"type":"Point","coordinates":[19.050089120864865,47.51660652890699]}},{"type":"Feature","properties":{"name":"Panini Café","URL":"https://www.facebook.com/cafepaninibudapest","marker-symbol":"restaurant"},"geometry":{"type":"Point","coordinates":[19.04850125312805,47.51594713843481]}},{"type":"Feature","properties":{"name":"Kispiac Bistro","URL":"https://www.facebook.com/Kispiac","marker-symbol":"restaurant"},"geometry":{"type":"Point","coordinates":[19.05258357524872,47.50461664635609]}},{"type":"Feature","properties":{"name":"Azték Choxolat","URL":"http://choxolat.hu/english.html"},"geometry":{"type":"Point","coordinates":[19.05757784843445,47.49541856111236]}},{"type":"Feature","properties":{"name":"Pár Perc Krumpli","URL":"http://parperckrumpli.hu/etlap/index.html","marker-symbol":"fast-food"},"geometry":{"type":"Point","coordinates":[19.0622341632843,47.488535251876144]}},{"type":"Feature","properties":{"name":"Hummus Bar","URL":"http://www.hummusbar.hu/eng/our-restaurants/","marker-symbol":"restaurant"},"geometry":{"type":"Point","coordinates":[19.059197902679443,47.49070292103441]}},{"type":"Feature","properties":{"name":"Dionysos","URL":"http://www.dionysos.hu/index.php/en/menu","marker-symbol":"restaurant"},"geometry":{"type":"Point","coordinates":[19.054241180419922,47.48894124354409]}},{"type":"Feature","properties":{"name":"Trófea","URL":"http://kiraly.trofeagrill.eu/en","marker-symbol":"restaurant"},"geometry":{"type":"Point","coordinates":[19.059423208236694,47.49991632895118]}},{"type":"Feature","properties":{"name":"Bite","URL":"http://bitehungary.com","marker-symbol":"bakery"},"geometry":{"type":"Point","coordinates":[19.056687355041504,47.50970788002249]}},{"type":"Feature","properties":{"name":"La Delizia","URL":"http://www.ladelizia.hu/eng/","marker-symbol":"bakery"},"geometry":{"type":"Point","coordinates":[19.059391021728516,47.507251104362766]}},{"type":"Feature","properties":{"name":"Nagy Csarnok"},"geometry":{"type":"Point","coordinates":[19.058436155319214,47.48704175552077]}},{"type":"Feature","properties":{"name":"Mannatural","URL":"http://www.mannatural.hu/etlap/","marker-symbol":"restaurant"},"geometry":{"type":"Point","coordinates":[19.047203063964844,47.50482320423671]}},{"type":"Feature","properties":{"name":"Ganga Vega Café","marker-symbol":"restaurant"},"geometry":{"type":"Point","coordinates":[19.055212140083313,47.503540357932344]}},{"type":"Feature","properties":{"name":"Sugar!","URL":"http://www.sugarshop.hu/index-en.html","marker-symbol":"bakery"},"geometry":{"type":"Point","coordinates":[19.060876965522766,47.50271772530234]}},{"type":"Feature","properties":{"name":"Hadik","URL":"http://hadikkavehaz.blog.hu/","marker-symbol":"restaurant"},"geometry":{"type":"Point","coordinates":[19.05103325843811,47.47922195643004]}},{"type":"Feature","properties":{"name":"Hummus Bar","URL":"http://www.hummusbar.hu/eng/our-restaurants/","marker-symbol":"restaurant"},"geometry":{"type":"Point","coordinates":[19.05444502830505,47.50789610969483]}},{"type":"Feature","properties":{"name":"Hummus Bar","URL":"http://www.hummusbar.hu/eng/our-restaurants/","marker-symbol":"resturant"},"geometry":{"type":"Point","coordinates":[19.049359560012817,47.51349065484327]}},{"type":"Feature","properties":{"name":"Hummus Bar","URL":"http://www.hummusbar.hu/eng/our-restaurants/","marker-symbol":"restaurant"},"geometry":{"type":"Point","coordinates":[19.061890840530396,47.497161899611285]}},{"type":"Feature","properties":{"name":"Hummus Bar","URL":"http://www.hummusbar.hu/eng/our-restaurants/","marker-symbol":"restaurant"},"geometry":{"type":"Point","coordinates":[19.05232071876526,47.48214046914821]}},{"type":"Feature","properties":{"name":"Caledonia Scottish Pub","URL":"https://www.facebook.com/caledoniabudapest","marker-symbol":"bar"},"geometry":{"type":"Point","coordinates":[19.060828685760498,47.50488843287226]}},{"type":"Feature","properties":{"name":"Fragola","URL":"http://www.fragolafagylaltozo.hu"},"geometry":{"type":"Point","coordinates":[19.059664607048035,47.49525545995517]}},{"type":"Feature","properties":{"name":"Fragola","URL":"http://www.fragolafagylaltozo.hu"},"geometry":{"type":"Point","coordinates":[19.049364924430847,47.514711664748546]}},{"type":"Feature","properties":{"name":"Fragola","URL":"http://www.fragolafagylaltozo.hu"},"geometry":{"type":"Point","coordinates":[19.062963724136353,47.487832008882606]}},{"type":"Feature","properties":{"name":"Fragola","URL":"http://www.fragolafagylaltozo.hu"},"geometry":{"type":"Point","coordinates":[19.05469179153442,47.50890346171658]}},{"type":"Feature","properties":{"name":"Carmen Mini Hotel","marker-symbol":"lodging"},"geometry":{"type":"Point","coordinates":[19.05876874923706,47.49625580574414]}},{"type":"Feature","properties":{"name":"Elite Apartmanok","marker-symbol":"lodging"},"geometry":{"type":"Point","coordinates":[19.061343669891357,47.49699517951353]}},{"type":"Feature","properties":{"name":"Marco Polo Top","marker-symbol":"lodging"},"geometry":{"type":"Point","coordinates":[19.06630039215088,47.49689369745572]}},{"type":"Feature","properties":{"name":"Akácfa Apartments","marker-symbol":"lodging"},"geometry":{"type":"Point","coordinates":[19.068188667297363,47.498009989304144]}},{"type":"Feature","properties":{"name":"All Central Hostel","marker-symbol":"lodging"},"geometry":{"type":"Point","coordinates":[19.05207395553589,47.4959296081243]}},{"type":"Feature","properties":{"name":"Elizabeth Bridge","marker-symbol":"lodging"},"geometry":{"type":"Point","coordinates":[19.057899713516232,47.493921635925226]}},{"type":"Feature","properties":{"name":"Zazzi","marker-symbol":"bakery","URL":"http://zazzi.hu/index.php/en/"},"geometry":{"type":"Point","coordinates":[19.037997722625732,47.52918408340264]}},{"type":"Feature","properties":{"name":"Castro","marker-symbol":"restaurant","URL":"https://www.facebook.com/castrobistro"},"geometry":{"type":"Point","coordinates":[19.05726134777069,47.49750077470016]}},{"type":"Feature","properties":{"name":"Va Piano","marker-symbol":"restaurant","URL":"http://www.vapiano.hu/index.php?vapiano=menu1&site=specialitasok"},"geometry":{"type":"Point","coordinates":[19.052202701568604,47.49629204979903]}},{"type":"Feature","properties":{"name":"Szimpla Kert","marker-symbol":"bar","URL":"http://www.szimpla.hu/en"},"geometry":{"type":"Point","coordinates":[19.063382148742676,47.49687195127497]}},{"type":"Feature","properties":{"name":"Instant","marker-symbol":"bar","URL":"http://instant.co.hu/en"},"geometry":{"type":"Point","coordinates":[19.058414697647095,47.504627517843765]}},{"type":"Feature","properties":{"name":"Hello Baby","marker-symbol":"bar","URL":"http://www.hellobabybar.hu/"},"geometry":{"type":"Point","coordinates":[19.06378984451294,47.50586685267891]}},{"type":"Feature","properties":{"name":"Corvintető","marker-symbol":"music","URL":"http://corvinteto.hu/en/programs"},"geometry":{"type":"Point","coordinates":[19.069079160690304,47.496197815204255]}}]}