CountryName,Province,Status,CityName,Latitude,Longitude
Brazil,Mato Grosso,Provincial capital,Cuiaba,-15.6150000346671,-56.0930035634594
Brazil,Distrito Federal,National and provincial capital,Brasilia,-15.7921109067374,-47.8977475379138
Brazil,Goias,Provincial capital,Goiania,-16.727003889114,-49.2550014849788
Brazil,Mato Grosso do Sul,Provincial capital,Campo Grande,-20.4509970214592,-54.615995546089
Paraguay,Amambay,Provincial capital,Pedro Juan Caballero,-22.5330030369038,-55.7479976043001
Paraguay,Canindeyu,Provincial capital,Salto del Guaira,-24.0499980292341,-54.2833015711747
Paraguay,Alto Parana,Provincial capital,Puerto Presidente Stroessner,-25.5269969450032,-54.6229974906774
Paraguay,Itapua,Provincial capital,Encarnacion,-27.3770009931349,-55.8510025770062
Argentina,Misiones,Provincial capital,Posadas,-27.3979980562661,-55.9060015675947
Peru,Madre de Dios,Provincial capital,Puerto Maldonado,-12.6029970363871,-69.1919994629812
Peru,Cusco,Provincial capital,Cuzco,-13.5260010107517,-71.9870035734592
Peru,Apurimac,Provincial capital,Abancay,-13.6420019116663,-72.8839974882043
Peru,Puno,Provincial capital,Puno,-15.8450039522787,-70.034003488739
Peru,Arequipa,Provincial capital,Arequipa,-16.3980000343164,-71.5229994733497
Bolivia,La Paz,National and provincial capital,La Paz,-16.4990069573212,-68.1462445092429
Wallis & Futuna,Wallis & Futuna,National and provincial capital,Mata-Utu,-13.2732990234759,-176.151563636364
Samoa,Samoa,National capital,Apia,-13.8370229146889,-171.739493586127
American Samoa,American Samoa,National and provincial capital,Pago Pago,-14.2683749375493,-170.697860664856
French Polynesia,French Polynesia,National and provincial capital,Papeete,-17.5349968858133,-149.570009674919
Niue,Niue,National and provincial capital,Alofi,-19.0166669088309,-169.916669567085
Tonga,Tonga,National capital,Nuku' alofa,-21.1309020252917,-175.245650648838
Cook Is.,Cook Is.,National and provincial capital,Avarua,-21.2333039755437,-159.766694578051
Pitcairn Is.,Pitcairn Is.,National and provincial capital,Adamstown,-25.0659990210469,-130.103000513561
Chile,Aisen del General Carlos Ibanez del Campo,Provincial capital,Puerto Aisen,-45.4020029239464,-72.7019995527103
Argentina,Chubut,Other,Comodoro Rivadavia,-45.8299979452961,-67.4999995436277
Argentina,Santa Cruz,Provincial capital,Rio Gallegos,-51.624999049095,-69.2289984649903
Falkland Is.,Falkland Islands,National and provincial capital,Stanley,-51.7010040389322,-57.849002467691
Chile,Magallanes y de la Antartica Chilena,Other,Punta Arenas,-53.1661680598459,-70.9346516136467
Argentina,Tierra del Fuego,Provincial capital,Ushuaia,-54.792,-68.2980024573043
Chile,Libertador General Bernardo O'Higgins,Provincial capital,San Fernando,-34.5879989368932,-70.9849975347055
Chile,Maule,Provincial capital,Talca,-35.4230010180626,-71.6599976028792
Chile,Bio-Bio,Provincial capital,Concepcion,-36.8260019298135,-73.054997545191
Chile,Araucania,Provincial capital,Temuco,-38.7289979827147,-72.5759994671717
Argentina,Neuquen,Provincial capital,Neuquen,-38.944907988039,-68.2833324963993
Chile,Los Lagos,Provincial capital,Puerto Montt,-41.4749969207408,-72.9520015086025
Chile,Antofagasta,Provincial capital,Antofagasta,-23.6410020213143,-70.3989985500613
Chile,Atacama,Provincial capital,Copiapo,-27.3600000294063,-70.3320024906313
Chile,Coquimbo,Provincial capital,La Serena,-29.9009969829884,-71.244998509738
Argentina,San Juan,Provincial capital,San Juan,-31.5340019778345,-68.5269985794314
Argentina,Mendoza,Provincial capital,Mendoza,-32.8969980423903,-68.8300014762108
Chile,Valparaiso,Provincial capital,Valparaiso,-33.020999912744,-71.5550035165894
Chile,Region Metropolitana,National and provincial capital,Santiago,-33.475023031432,-70.6475154555957
Chile,Coquimbo,Other,Coquimbo,-29.9590019842463,-71.3320015435661
Ecuador,Manabi,Provincial capital,Portoviejo,-1.0559969160199,-80.4549955345152
Ecuador,Bolivar,Provincial capital,Guaranda,-1.60599592350563,-79.0029985519137
Ecuador,Los Rios,Provincial capital,Babahoyo,-1.79499596907164,-79.5300026120507
Ecuador,Guayas,Provincial capital,Guayaquil,-2.20309191136901,-79.9078766046344
Ecuador,Canar,Provincial capital,Azogues,-2.75000398667589,-78.8439955637685
Colombia,Amazonas,Provincial capital,Leticia,-4.14999888775721,-69.9499975294628
Brazil,Acre,Provincial capital,Rio Branco,-9.97900191901338,-67.8120026001804
Bolivia,Pando,Provincial capital,Cobija,-11.0324970399437,-68.7975474829017
Ecuador,Galapagos,Provincial capital,Baquerizo Moreno,-0.899999938544198,-89.6059976347852
Ecuador,Azuay,Provincial capital,Cuenca,-2.89799999471258,-79.0149956207552
Ecuador,El Oro,Provincial capital,Machala,-3.26600090122068,-79.9540015339978
Peru,Tumbes,Provincial capital,Tumbes,-3.56799600251548,-80.4539965096646
Ecuador,Loja,Provincial capital,Loja,-3.98999687476138,-79.2039955008376
Ecuador,Zamora-Chinchipe,Provincial capital,Zamora,-4.0689989391505,-78.9569995556149
Peru,Piura,Provincial capital,Piura,-5.19399888728959,-80.6249965666513
Peru,Lambayeque,Provincial capital,Chiclayo,-6.76299596114005,-79.8370016082326
Peru,La Libertad,Provincial capital,Trujillo,-8.11199690715306,-79.0299985347826
Peru,San Martin,Provincial capital,Mayobamba,-6.01200000473044,-76.9899955817179
Peru,Amazonas,Provincial capital,Chachapoyas,-6.23500197775372,-77.8679995846343
Peru,Cajamarca,Provincial capital,Cajamarca,-7.16200188603717,-78.5109956095683
Peru,Ucayali,Provincial capital,Pucallpa,-8.38700096169655,-74.5270015021907
Peru,Ancash,Other,Chimbote,-8.93009698382212,-78.4531435152115
Peru,Ancash,Provincial capital,Huaraz,-9.53600398363631,-77.5310035310316
Peru,Huanuco,Provincial capital,Huanuco,-9.92500195327558,-76.2309984903857
Peru,Pasco,Provincial capital,Cerro De Pasco,-10.6869959536761,-76.2630025336253
Ecuador,Pichincha,National and provincial capital,Quito,-0.229499867515365,-78.5242794793439
Ecuador,Cotopaxi,Provincial capital,La Tacunga,-0.932003981783865,-78.6059996128354
Ecuador,Napo,Provincial capital,Tena,-0.983303916138055,-77.8166994847965
Ecuador,Tungurahua,Provincial capital,Ambato,-1.2400020028164,-78.6200035020122
Ecuador,Pastaza,Provincial capital,Puyo,-1.48300201412022,-77.9869975601009
Ecuador,Chimborazo,Provincial capital,Riobamba,-1.67100286935194,-78.6449964990622
Ecuador,Morona-Santiago,Provincial capital,Macas,-2.31299986943529,-78.114995529857
Peru,Loreto,Provincial capital,Iquitos,-3.75299994867895,-73.1909964843862
Peru,Callao,Provincial capital,Callao,-12.0570028989379,-77.1440036110936
Peru,Junin,Provincial capital,Huancayo,-12.0750028875171,-75.211001564654
Peru,Huancavelica,Provincial capital,Huancavelica,-12.7899990322519,-74.9860015419294
Peru,Ayacucho,Provincial capital,Ayacucho,-13.173003018271,-74.2210015308594
Peru,Ica,Provincial capital,Ica,-14.0640029493959,-75.7439996084111
Peru,Moquegua,Provincial capital,Moquegua,-17.1939959621741,-70.9309975689677
Peru,Tacna,Provincial capital,Tacna,-18.0179999993527,-70.2510025420246
Chile,Tarapaca,Provincial capital,Iquique,-20.2210020399651,-70.1489965941691
Peru,Lima,National and provincial capital,Lima,-12.0819958959879,-77.045003508424
Brazil,Para,Provincial capital,Belem,-1.43900090203902,-48.4980024433478
Brazil,Para,Other,Santarem,-2.45999701810502,-54.6100015624689
Brazil,Amazonas,Provincial capital,Manaus,-3.12200099258651,-60.0149965701766
Brazil,Rondonia,Provincial capital,Porto Velho,-8.76200397827667,-63.9060025962236
Brazil,Tocantins,Provincial capital,Palmas,-10.2127679421335,-48.3603475091749
Paraguay,Chaco,Provincial capital,Mayor Pablo Lagerenza,-19.9666980053845,-60.7499995238258
Paraguay,Alto Paraguay,Provincial capital,Fuerte Otimpo,-21.0359969812528,-58.030001543818
Paraguay,Boqueron,Provincial capital,Mariscal Jose F. Estigarribia,-22.0300020505675,-60.6099955491105
Bolivia,El Beni,Provincial capital,Trinidad,-14.8410000293074,-64.9029954730053
Bolivia,Cochabamba,Provincial capital,Cochabamba,-17.3840039687084,-66.1670005364927
Bolivia,Santa Cruz,Other,Santa Cruz de La Sierra,-17.7887879210504,-63.1974144752243
Bolivia,Oruro,Provincial capital,Oruro,-17.9749979121222,-67.1110015739884
Bolivia,Chuquisaca,Provincial capital,Sucre,-19.0420019606046,-65.2560025670872
Bolivia,Potosi,Provincial capital,Potosi,-19.5830009738007,-65.755997542754
Paraguay,Nueva Asuncion,Provincial capital,Fortin Coronel Eugenia Garay,-20.5199999012244,-62.2040034922462
Bolivia,Tarija,Provincial capital,Tarija,-21.5319960230007,-64.7309965566516
Paraguay,Concepcion,Provincial capital,Concepcion,-23.4029969687799,-57.4289994796627
Paraguay,Presidente Hayes,Provincial capital,Pozo Colorado,-23.4360000368702,-58.8519985951777
Paraguay,San Pedro,Provincial capital,San Pedro,-24.0890040170621,-57.0770005120326
Paraguay,Central,National capital,Asuncion,-25.3050029329482,-57.6219954591475
Uruguay,Artigas,Provincial capital,Artigas,-30.4100010545461,-56.4730015388091
Argentina,Santa Fe,Provincial capital,Santa Fe,-31.6169999761425,-60.6979976077893
Argentina,Entre Rios,Provincial capital,Parana,-31.7300039679889,-60.5320016111733
Argentina,Santa Fe,Other,Rosario,-32.9377320105878,-60.6639324655742
Argentina,Buenos Aires,Provincial capital,La Plata,-34.9166969778886,-57.9500004545782
Uruguay,San Jose,Provincial capital,San Jose De Mayo,-34.3549979447296,-56.7109974897421
Uruguay,Colonia,Provincial capital,Colonia del Sacramento,-34.4799990054175,-57.8400024734013
Uruguay,Canelones,Provincial capital,Canelones,-34.5380040066755,-56.284001493243
Argentina,La Pampa,Provincial capital,Santa Rosa,-36.6280020554415,-64.2879984557908
Argentina,Buenos Aires,Other,Bahia Blanca,-38.725271952644,-62.2740595100186
Argentina,Rio Negro,Provincial capital,Viedma,-40.8150269059147,-62.9950316006546
Argentina,Chubut,Provincial capital,Rawson,-43.2999990357049,-65.0999964880103
Argentina,Distrito Federal,National and provincial capital,Buenos Aires,-34.6224959914588,-58.4498335872263
Argentina,Jujuy,Provincial capital,San Salvador De Jujuy,-24.1980029733884,-65.3010025385354
Argentina,Salta,Provincial capital,Salta,-24.7889969168021,-65.4080036106441
Argentina,Tucuman,Provincial capital,San Miguel De Tucuman,-26.8290000353505,-65.2139995047073
Argentina,Santiago del Estero,Provincial capital,Santiago Del Estero,-27.7900020365748,-64.2689996078446
Argentina,Catamarca,Provincial capital,Catamarca,-28.4660009641155,-65.7809994759217
Argentina,La Rioja,Provincial capital,La Rioja,-29.4129989106795,-66.8549965328748
Argentina,Cordoba,Provincial capital,Cordoba,-31.3160038996983,-64.1799985243152
Argentina,San Luis,Provincial capital,San Luis,-33.316002005568,-66.3479996126197
Paraguay,Cordillera,Provincial capital,Caacupe,-25.3870019064055,-57.14000047206
Paraguay,Caaguazu,Provincial capital,Coronel Oviedo,-25.4529989409849,-56.4280015673609
Paraguay,Paraguari,Provincial capital,Paraguari,-25.6239989979716,-57.1509985160509
Paraguay,Guaira,Provincial capital,Villarrica,-25.7840010109675,-56.4509965147097
Argentina,Formosa,Provincial capital,Formosa,-26.182997999747,-58.1769985270041
Paraguay,Neembucu,Provincial capital,Pilar,-26.8679969215772,-58.2959965024706
Argentina,Chaco,Provincial capital,Resistencia,-27.457001916891,-58.9869985095222
Argentina,Corrientes,Provincial capital,Corrientes,-27.4869989743118,-58.8179965022368
Paraguay,Central,Provincial capital,Ypacarai,-25.4060009198354,-57.2830015213272
Paraguay,Caazapa,Provincial capital,Caazapa,-26.1999989634756,-56.3679985164017
Paraguay,Misiones,Provincial capital,San Juan Bautista,-26.6730028923911,-57.1470025821321
Uruguay,Salto,Provincial capital,Salto,-31.3959960528205,-57.9629965482704
Uruguay,Paysandu,Provincial capital,Paysandu,-32.3319959553936,-58.0799964740357
Uruguay,Rio Negro,Provincial capital,Fray Bentos,-33.1389990288435,-58.3039974719096
Uruguay,Soriano,Provincial capital,Mercedes,-33.2780039787082,-58.0149984643069
Uruguay,Durazno,Provincial capital,Durazno,-33.4169999924552,-56.5100005408182
Uruguay,Flores,Provincial capital,Trinidad,-33.5439989373608,-56.9009965601588
Brazil,Sao Paulo,Provincial capital,Sao Paulo,-23.580998970355,-46.6229964620485
Brazil,Sao Paulo,Other,Santos,-23.9546969827987,-46.3094904829029
Brazil,Parana,Provincial capital,Curitiba,-25.4300039936361,-49.2849985423996
Brazil,Santa Catarina,Provincial capital,Florianopolis,-27.5759998923575,-48.6189984685156
Brazil,Rio Grande do Sul,Provincial capital,Porto Alegre,-30.040001932853,-51.208001569699
Uruguay,Rivera,Provincial capital,Rivera,-30.8874060213781,-55.529036576751
Uruguay,Tacuarembo,Provincial capital,Tacuarembo,-31.7050020348212,-55.9829964806813
Uruguay,Cerro Largo,Provincial capital,Melo,-32.3630009737826,-54.1770024807484
Uruguay,Treinta y Tres,Provincial capital,Treinta Y Tres,-33.2309970214411,-54.375002520604
Uruguay,Florida,Provincial capital,Florida,-34.0990020052173,-56.2149984479942
Uruguay,Lavalleja,Provincial capital,Minas,-34.3749959830101,-55.2269964639009
Uruguay,Rocha,Provincial capital,Rocha,-34.4969999691462,-54.3259975136357
Uruguay,Maldonado,Provincial capital,Maldonado,-34.9129979216543,-54.9479964754385
Uruguay,Montevideo,National and provincial capital,Montevideo,-34.9200000317264,-56.169998476546
Brazil,Bahia,Provincial capital,Salvador,-12.9930029669946,-38.4810025106042
St. Helena,St. Helena,National and provincial capital,Jamestown,-15.921999030849,-5.70500050651137
Brazil,Minas Gerais,Provincial capital,Belo Horizonte,-19.8520019431228,-43.909001567262
Brazil,Espirito Santo,Provincial capital,Vitoria,-20.3329979053596,-40.4139954554427
Brazil,Rio de Janeiro,Other,Rio de Janeiro,-22.7215710046356,-43.4551854686316
Brazil,Rio de Janeiro,Provincial capital,Niteroi,-22.8390030082351,-42.8810035066077
Brazil,Maranhao,Provincial capital,Sao Luis,-2.51499600869347,-44.3009964459695
Brazil,Ceara,Provincial capital,Fortaleza,-3.78299700609976,-38.5890024420799
Brazil,Piaui,Provincial capital,Teresina,-5.10499796924387,-42.8020014422185
Brazil,Rio Grande do Norte,Provincial capital,Natal,-5.80599899543579,-35.2109965869931
Brazil,Paraiba,Provincial capital,Joao Pessoa,-7.12999800828116,-34.8669984233184
Brazil,Pernambuco,Provincial capital,Recife,-8.08499692428415,-34.9149954693184
Brazil,Alagoas,Provincial capital,Maceio,-9.67688998625518,-35.7477204953372
Brazil,Sergipe,Provincial capital,Aracaju,-10.91099695155,-37.0600014447905
United States,Texas,Other,Galveston,29.3166991441014,-94.7833015245023
Canada,Northwest Territories,Provincial capital,Yellowknife,62.4560041391012,-114.351002527978
United States,Alaska,Provincial capital,Juneau,58.3029990883205,-134.40401067398
United States,Mississippi,Provincial capital,Jackson,32.3190000009258,-90.203003599538
United States,Louisiana,Provincial capital,Baton Rouge,30.4650000188752,-91.1529986206538
United States,Louisiana,Other,New Orleans,29.9563830135964,-90.0986936226953
United States,Texas,Other,Houston,29.7718290175023,-95.4071095536676
Canada,British Columbia,Other,Prince Rupert,54.3210030306441,-130.310000547706
United States,Alaska,Other,Fairbanks,64.8387450977757,-147.651182627759
United States,Alaska,Other,Nome,64.5862860405116,-165.269996642864
Canada,Yukon Territory,Provincial capital,Whitehorse,60.7259970912867,-135.044009624362
United States,Alaska,Other,Seward,60.1200000683618,-149.450003573
United States,Hawaii,Provincial capital,Honolulu,21.3290009981163,-157.861997684101
United States,Hawaii,Other,Hilo,19.7148151359625,-155.067290616791
United States,Alaska,Other,Anchorage,61.2029971196047,-149.897987531029
Canada,Alberta,Provincial capital,Edmonton,53.5560030195741,-113.507999642853
Canada,Alberta,Other,Calgary,51.0300000439018,-114.049997515416
Canada,British Columbia,Other,Vancouver,49.2742980173548,-122.963066548543
Canada,British Columbia,Provincial capital,Victoria,48.4440031188715,-123.371000647822
United States,Washington,Other,Seattle,47.5885530493521,-122.316650638308
United States,Washington,Provincial capital,Olympia,47.0439991161889,-122.892002569803
United States,Oregon,Other,Portland,45.4421250727965,-122.641685533023
Canada,Northwest Territories,Other,Inuvik,68.3659981828465,-133.705988519137
United States,North Dakota,Provincial capital,Bismarck,46.8000000800345,-100.783295511144
Canada,Manitoba,Other,Churchill,58.748463061187,-94.1318995916153
Canada,Saskatchewan,Other,Saskatoon,52.1100000205927,-106.630001653295
Canada,Saskatchewan,Provincial capital,Regina,50.44799715866,-104.615999492765
Canada,Manitoba,Provincial capital,Winnipeg,49.9210020346407,-97.1240035108429
United States,Montana,Provincial capital,Helena,46.5959971204411,-112.034996495519
United States,Minnesota,Provincial capital,Saint Paul,45.0209971268529,-93.0650036039623
United States,South Dakota,Provincial capital,Pierre,44.3666970786421,-100.349999551739
United States,Minnesota,Other,Minneapolis,44.9241931578246,-93.3077874936072
United States,Iowa,Provincial capital,Des Moines,41.5980000709519,-93.6219956199188
United States,Nebraska,Provincial capital,Lincoln,40.8069991018636,-96.6819954987152
United States,Kansas,Provincial capital,Topeka,39.0459961372613,-95.6950016410738
United States,Oklahoma,Provincial capital,Oklahoma City,35.4899970512333,-97.5300026096944
United States,California,Other,San Diego,32.7614581286065,-117.125495600832
Mexico,Baja California,Provincial capital,Mexicali,32.6549970296778,-115.467002647311
United States,Idaho,Provincial capital,Boise,43.6167001470831,-116.216702535702
United States,California,Other,Oakland,37.8104580692816,-122.271470620639
United States,Oregon,Provincial capital,Salem,44.9559991171242,-122.991002506989
United States,Nevada,Provincial capital,Carson City,39.1650030488454,-119.765996554826
United States,California,Provincial capital,Sacramento,38.566998059242,-121.422995521871
United States,California,Other,San Francisco,37.795815082213,-122.380091612287
United States,California,Other,San Jose,37.3081051169548,-121.847453660973
United States,California,Other,Los Angeles,34.000002041772,-118.250000587346
United States,Wyoming,Provincial capital,Cheyenne,41.133996136326,-104.81399953262
United States,Utah,Provincial capital,Salt Lake City,40.6929960851665,-111.891995611735
United States,Colorado,Provincial capital,Denver,39.5780040922853,-105.078995631906
United States,Kansas,Other,Kansas City,38.9941201542894,-94.6265664899066
United States,Missouri,Other,St. Louis,38.638881016612,-90.3419815755662
United States,Missouri,Provincial capital,Jefferson City,38.5800030890518,-92.1689996124667
United States,New Mexico,Provincial capital,Santa Fe,35.6830021323195,-105.941996555311
United States,Tennessee,Other,Memphis,35.114724130805,-90.0003235163163
United States,Arkansas,Provincial capital,Little Rock,34.7609970173219,-92.3100026120326
United States,Arizona,Provincial capital,Phoenix,33.5089981242772,-112.110002625989
United States,Texas,Other,El Paso,31.7799990374309,-106.450001602018
Mexico,Sonora,Provincial capital,Hermosillo,29.094003150364,-110.9619986289
Mexico,Chihuahua,Provincial capital,Chihuahua,28.6309980751052,-106.073999560588
Mexico,Sinaloa,Provincial capital,Culiacan,24.8049989949045,-107.386001504592
Mexico,Baja California Sur,Provincial capital,La Paz,24.1564230264657,-110.309525520287
Mexico,Durango,Provincial capital,Durango,24.0290011053272,-104.662997513914
Mexico,Sinaloa,Other,Mazatlan,23.3615070449679,-106.270001550742
Mexico,Zacatecas,Provincial capital,Zacatecas,22.7639970169892,-102.554999642053
United States,Texas,Other,Dallas,32.7637260821559,-96.6636895308501
United States,Texas,Provincial capital,Austin,30.2799960727117,-97.7329976083196
United States,Texas,Other,San Antonio,29.4299190921231,-98.5245746260256
Mexico,Nuevo Leon,Provincial capital,Monterrey,25.6770000780832,-100.316996483649
Mexico,Coahuila,Provincial capital,Saltillo,25.4179981279013,-100.994003537641
Mexico,Tamaulipas,Provincial capital,Ciudad Victoria,23.739003072874,-99.1389955946223
Mexico,Aguascalientes,Provincial capital,Aguascalientes,21.8879999998916,-102.290003542767
Mexico,Nayarit,Provincial capital,Tepic,21.508002024542,-104.896997530928
Mexico,Guanajuato,Provincial capital,Guanajuato,21.0200041177168,-101.264003531814
Mexico,Jalisco,Provincial capital,Guadalajara,20.6739991337068,-103.34400256144
Mexico,Colima,Provincial capital,Colima,19.2510000181918,-103.73499858078
Mexico,Tamaulipas,Other,Tampico,22.243239137569,-97.8426265609365
Mexico,Campeche,Provincial capital,Campeche,19.8549989914154,-90.5259955984803
Mexico,Veracruz,Provincial capital,Jalapa,19.5329970812061,-96.9029995875209
Mexico,Tlaxcala,Provincial capital,Tlaxcala,19.3100040443004,-98.2369976195065
Mexico,Puebla,Other,Puebla,19.0486350158573,-98.1929425597524
Mexico,Tabasco,Provincial capital,Villahermosa,17.9759970761971,-92.9369965326049
Mexico,Oaxaca,Provincial capital,Oaxaca,17.0620020322398,-96.7139995419549
Mexico,Chiapas,Provincial capital,Tuxtla Gutierrez,16.7439960559494,-93.1089956144423
Mexico,Veracruz,Other,Veracruz,19.1850031490961,-96.1229964969398
Mexico,San Luis Potosi,Provincial capital,San Luis Potosi,22.1519970743266,-100.979999648464
Mexico,Queretaro,Provincial capital,Queretaro,20.5830000004762,-100.386998553748
Mexico,Hidalgo,Provincial capital,Pachuca,20.1200040268186,-98.7550015198702
Mexico,Michoacan,Provincial capital,Morelia,19.697004129722,-101.185001632908
Mexico,Distrito Federal,National and provincial capital,Mexico City,19.4270491471046,-99.1275745743985
Mexico,Mexico,Provincial capital,Toluca,19.2830040614315,-99.6667016364416
Mexico,Morelos,Provincial capital,Cuernavaca,18.9209971385435,-99.2210035041973
Mexico,Guerrero,Provincial capital,Chilpancingo De Los Bravo,17.5519979887663,-99.5010025175103
Mexico,Guerrero,Other,Acapulco,16.9743781037223,-99.9314994863036
Guatemala,Alta Verapaz,Provincial capital,Coban,15.4710000997736,-90.3719965052222
Guatemala,Huehuetenango,Provincial capital,Huehuetenango,15.3170010065155,-91.4669995614241
Guatemala,Quiche,Provincial capital,Santa Cruz Del Quiche,15.0333031024519,-91.1332976255416
Guatemala,San Marcos,Provincial capital,San Marcos,14.9660010637361,-91.7999995156243
Guatemala,Totonicapan,Provincial capital,Totonicapan,14.9139989822158,-91.3580006050979
Guatemala,Quezaltenango,Provincial capital,Quezaltenango,14.8332960767774,-91.5000026295144
Guatemala,Solola,Provincial capital,Solola,14.7729959826499,-91.182995512591
Guatemala,Retalhuleu,Provincial capital,Retalhuleu,14.5370970406463,-91.6770145423565
Guatemala,Suchitepequez,Provincial capital,Mazatenango,14.5342080269239,-91.5003625564732
Guatemala,Baja Verapaz,Provincial capital,Salama,15.1029990277819,-90.3140006055655
Guatemala,El Progreso,Provincial capital,El Progreso,14.8499999973378,-90.0167035853555
Guatemala,Chimaltenango,Provincial capital,Chimaltenango,14.6619991421061,-90.81999850097
Guatemala,Guatemala,National and provincial capital,Guatemala,14.6180071316261,-90.5248976144014
Guatemala,Sacatepequez,Provincial capital,Antigua Guatemala,14.5666980956707,-90.7333016119114
Guatemala,Escuintla,Provincial capital,Escuintla,14.3029980644039,-90.7820006395938
Guatemala,Santa Rosa,Provincial capital,Cuilapa,14.2790040922045,-90.2979985012038
Cuba,Pinar del Rio,Provincial capital,Pinar Del Rio,22.4250030791689,-83.6880026216009
Cuba,Villa Clara,Provincial capital,Santa Clara,22.4139960990604,-79.9659986028394
Cuba,Cienfuegos,Provincial capital,Cienfuegos,22.1499990246254,-80.4439974905243
Cuba,Sancti Spiritus,Provincial capital,Sancti Spiritus,21.9359970458917,-79.4429995782225
Cuba,Isla de la Juventud,Provincial capital,Nueva Gerona,21.8850030908234,-82.7990005746936
Cuba,Ciego de Avila,Provincial capital,Ciego De Avila,21.8410021442259,-78.7629956151618
Cayman Is.,Cayman Is.,National and provincial capital,George Town,19.2999960890425,-81.3833275862553
Canada,Nova Scotia,Provincial capital,Halifax,44.67999603773,-63.6509965799606
Bermuda,Bermuda,National and provincial capital,Hamilton,32.2890300828251,-64.7791645472716
Costa Rica,Alajuela,Provincial capital,Alajuela,10.0160010602469,-84.2210004998743
Costa Rica,Heredia,Provincial capital,Heredia,9.99199798644625,-84.1200025129871
Costa Rica,Limon,Provincial capital,Puerto Limon,9.99000010222865,-83.0300035171559
Costa Rica,San Jose,National and provincial capital,San Jose,9.93047414065893,-84.0786205107801
Costa Rica,Cartago,Provincial capital,Cartago,9.85699807210172,-83.9210036137644
Panama,Bocas del Toro,Provincial capital,Bocas del Toro,9.33390902437428,-82.2493884680031
Panama,Chiriqui,Provincial capital,David,8.42799603684895,-82.4309995027018
Aruba,Aruba,National and provincial capital,Oranjestad,12.5250030721906,-70.0260025193
Netherlands Antilles,Netherlands Antilles,National and provincial capital,Willemstad,12.1387860554443,-68.9705545257073
Colombia,La Guajira,Provincial capital,Riohacha,11.5520040021247,-72.8980015428646
Venezuela,Falcon,Provincial capital,Coro,11.4030000331197,-69.6779994855888
Panama,Veraguas,Provincial capital,Santiago,8.10099900238651,-80.9649984654399
Panama,Herrera,Provincial capital,Chitre,7.98000297721872,-80.4349974962347
Panama,Los Santos,Provincial capital,Las Tablas,7.76600099848507,-80.2770024690577
Nicaragua,Rio San Juan,Provincial capital,San Carlos,11.199996098377,-84.8332974857051
Costa Rica,Guanacaste,Provincial capital,Liberia,10.6260031186919,-85.4369995812441
Costa Rica,Puntarenas,Provincial capital,Puntarenas,9.96900303909747,-84.8429996271608
Panama,San Blas,Provincial capital,El Porvenir,9.5432130875067,-78.9598524938996
Panama,Colon,Provincial capital,Colon,9.35511310756313,-79.8953484987304
Panama,Panama,National and provincial capital,Panama,9.00287998055526,-79.5170785037502
Panama,Cocle,Provincial capital,Penonome,8.51300102097581,-80.3549965724786
Ecuador,Esmeraldas,Provincial capital,Esmeraldas,0.954000043506362,-79.6599984660244
Colombia,San Andres y Providencia,Provincial capital,San Andres,12.5621371088657,-81.6903265824372
Honduras,Islas de la Bahia,Provincial capital,Roatan,16.3299959876588,-86.5189976076362
Honduras,Colon,Provincial capital,Trujillo,15.9166171450249,-85.9486225971923
Honduras,Atlantida,Provincial capital,La Ceiba,15.7550039831231,-86.871995600117
Honduras,Gracias a Dios,Provincial capital,Puerto Lempira,15.25699812104,-83.7809994735655
Honduras,Olancho,Provincial capital,Juticalpa,14.6660040121425,-86.2190005560427
Nicaragua,Zelaya,Provincial capital,Bluefields,12.0110040418634,-83.7659965595381
El Salvador,Morazan,Provincial capital,San Francisco Gotera,13.699998116031,-88.1000005209622
Honduras,Valle,Provincial capital,Nacaome,13.5279990341937,-87.4889996031503
El Salvador,San Miguel,Provincial capital,San Miguel,13.4730000436052,-88.1769955995324
El Salvador,Usulutan,Provincial capital,Usulutan,13.3460010986997,-88.4320016157954
El Salvador,La Union,Provincial capital,La Union,13.3319970440393,-87.8390005210791
Honduras,Choluteca,Provincial capital,Choluteca,13.3029990114691,-87.1939975103262
El Salvador,Cuscatlan,Provincial capital,Cojutepeque,13.7167020365914,-88.9333015955987
El Salvador,Santa Ana,Provincial capital,Santa Ana,13.995999068222,-89.5529965284143
El Salvador,Ahuachapan,Provincial capital,Ahuachapan,13.9190039896518,-89.8450015466865
El Salvador,Cabanas,Provincial capital,Sensuntepeque,13.8666960943294,-88.6332956078875
El Salvador,Sonsonate,Provincial capital,Sonsonate,13.7210041152798,-89.7190016266316
El Salvador,San Salvador,National and provincial capital,San Salvador,13.7014110155133,-89.2002325298277
El Salvador,La Libertad,Provincial capital,Nueva San Salvador,13.6739969925291,-89.28999847883
El Salvador,San Vicente,Provincial capital,San Vicente,13.6410030260401,-88.7849996082761
El Salvador,La Paz,Provincial capital,Zacatecoluca,13.5080009959131,-88.8679976065841
Belize,Toledo,Provincial capital,Punta Gorda,16.1160031105264,-88.8000025223035
Guatemala,Izabal,Provincial capital,Puerto Barrios,15.7269960392859,-88.5969985875607
Guatemala,Zacapa,Provincial capital,Zacapa,14.9720039834738,-89.5290025562149
Guatemala,Chiquimula,Provincial capital,Chiquimula,14.7969990564506,-89.5439965341247
Honduras,Copan,Provincial capital,Santa Rosa,14.7660031396628,-88.7779974982041
Guatemala,Jalapa,Provincial capital,Jalapa,14.6330011095359,-89.9890016208043
Honduras,Ocotepeque,Provincial capital,Nueva Ocotepeque,14.4369991193815,-89.1819985473544
Guatemala,Jutiapa,Provincial capital,Jutiapa,14.2900021361954,-89.8970036282067
El Salvador,Chalatenango,Provincial capital,Chalatenango,14.0720040580592,-89.0939964886756
Honduras,Cortes,Provincial capital,San Pedro Sula,15.5019960165614,-88.0280005666451
Honduras,Yoro,Provincial capital,Yoro,15.0599971060349,-87.290000538444
Honduras,Santa Barbara,Provincial capital,Santa Barbara,14.9190030425866,-88.235999625641
Honduras,Lempira,Provincial capital,Gracias,14.5833030570028,-88.5833005121862
Honduras,Comayagua,Provincial capital,Comayagua,14.4540000831101,-87.6429985309247
Honduras,Intibuca,Provincial capital,La Esperanza,14.3330040579423,-88.1666995372239
Honduras,La Paz,Provincial capital,La Paz,14.3199990281326,-87.684002568454
Honduras,Francisco Morazan,National and provincial capital,Tegucigalpa,14.0990040409282,-87.2029975046159
Nicaragua,Chinandega,Provincial capital,Chinandega,12.6240030093766,-87.1299985254481
Nicaragua,Boaco,Provincial capital,Boaco,12.4710031064528,-85.6600015542673
Nicaragua,Leon,Provincial capital,Leon,12.4329961434754,-86.8809955944066
Nicaragua,Managua,National and provincial capital,Managua,12.1509990804611,-86.2730005217805
Nicaragua,Chontales,Provincial capital,Juigalpa,12.1040010593117,-85.3700035218141
Nicaragua,Masaya,Provincial capital,Masaya,11.9690009794835,-86.0949985202054
Nicaragua,Granada,Provincial capital,Granada,11.9279971074378,-85.9599986058609
Nicaragua,Carazo,Provincial capital,Jinotepe,11.8459981339805,-86.194997482242
Nicaragua,Rivas,Provincial capital,Rivas,11.4319980656899,-85.8329994954717
Honduras,El Paraiso,Provincial capital,Yuscaran,13.9439969867018,-86.8509985369858
Nicaragua,Nueva Segovia,Provincial capital,Ocotal,13.6299960459315,-86.4729986113374
Nicaragua,Madriz,Provincial capital,Somoto,13.4759971181571,-86.5829965925143
Nicaragua,Jinotega,Provincial capital,Jinotega,13.0910040185543,-86.0000036185396
Nicaragua,Esteli,Provincial capital,Esteli,13.0869989830342,-86.3559985200885
Nicaragua,Matagalpa,Provincial capital,Matagalpa,12.9210029864182,-85.9169965186303
Mexico,Yucatan,Provincial capital,Merida,20.9829960141063,-89.6280024934009
Mexico,Quintana Roo,Provincial capital,Chetumal,18.4979970759633,-88.2909986162294
Belize,Corozal,Provincial capital,Corozal,18.3979981139267,-88.3880005037142
Belize,Orange Walk,Provincial capital,Orange Walk,18.0829981483058,-88.5570025109996
Belize,Belize,Provincial capital,Belize,17.4960001388109,-88.1819994944195
Belize,Cayo,Provincial capital,El Cayo,17.1559980745387,-89.0610025221866
Belize,Cayo,National capital,Belmopan,17.1199980973801,-88.8000025223035
Belize,Stann Creek,Provincial capital,Stann Creek Town,16.9650001447551,-88.2140035376592
Guatemala,Peten,Provincial capital,Flores,16.9270021178953,-89.8839985983969
Turks & Caicos Is.,Turks & Caicos Is.,National and provincial capital,Grand Turk,21.4666650338904,-71.1333264958646
Haiti,Nord-Ouest,Provincial capital,Port-De-Paix,19.9317600760915,-72.8294845231229
Dominican Republic,Monte Cristi,Provincial capital,Monte Cristi,19.8430020880575,-71.6460024843364
Dominican Republic,Puerto Plata,Provincial capital,Puerto Plata,19.7902171033456,-70.6902474734945
Haiti,Nord,Provincial capital,Cap-Haitien,19.7555580402776,-72.2134525711038
Colombia,Magdalena,Provincial capital,Santa Marta,11.2500001301959,-74.1809965181807
Cuba,Camaguey,Provincial capital,Camaguey,21.385998038406,-77.9139985809332
Cuba,Las Tunas,Provincial capital,Victoria De Las Tunas,20.966004151979,-76.9499995051569
Cuba,Holguin,Provincial capital,Holguin,20.8909980215087,-76.2620035087747
Cuba,Granma,Provincial capital,Manzanillo,20.3439960885749,-77.1129985927046
Cuba,Guantanamo,Provincial capital,Guantanamo,20.142999139651,-75.2090035149527
Cuba,Santiago de Cuba,Provincial capital,Santiago De Cuba,20.028996122954,-75.8289954909366
Haiti,Grand Anse,Provincial capital,Jeremie,18.6399271149881,-74.113757528739
Haiti,Sud,Provincial capital,Les Cayes,18.1899990549308,-73.7479976019439
Jamaica,Trelawny,Provincial capital,Falmouth,18.4795830472687,-77.6560496032749
Jamaica,Saint James,Provincial capital,Montego Bay,18.4689990433932,-77.9210005255215
Jamaica,Hanover,Provincial capital,Lucea,18.4429980853749,-78.1790036163364
Jamaica,Westmoreland,Provincial capital,Savanna La Mar,18.1639980969125,-77.9480005083904
Jamaica,Manchester,Provincial capital,Mandeville,18.0330030526045,-77.4999985126426
Jamaica,Saint Elizabeth,Provincial capital,Black River,18.0309960667856,-77.8519974802727
Jamaica,Saint Andrew,Provincial capital,Halfway Tree,18.0333000957727,-76.7999965113013
Jamaica,Saint Ann,Provincial capital,St. Anns Bay,18.4326391392758,-77.1995245371432
Jamaica,Saint Mary,Provincial capital,Port Maria,18.3770010507955,-76.8999954733379
Jamaica,Portland,Provincial capital,Port Antonio,18.159003138143,-76.3800026248743
Jamaica,Saint Catherine,Provincial capital,Spanish Town,17.9949960896271,-76.9519975548581
Jamaica,Clarendon,Provincial capital,May Pen,17.9690040677264,-77.2430035482796
Jamaica,Kingston,National and provincial capital,Kingston,17.9669250965158,-76.7995195873955
Jamaica,Saint Thomas,Provincial capital,Port Morant,17.8910010281879,-76.3289995682047
Haiti,Nord-Est,Provincial capital,Fort-Liberte,19.6655670334988,-71.8448395405403
Dominican Republic,Dajabon,Provincial capital,Dajabon,19.5479999952335,-71.7049975743274
Haiti,Artibonite,Provincial capital,Gonaives,19.4499990828981,-72.6890034590181
Haiti,Centre,Provincial capital,Hinche,19.1430000867162,-72.0039956010703
Dominican Republic,La Estrelleta,Provincial capital,Elias Pina,18.8759970016117,-71.706995458545
Haiti,Ouest,National and provincial capital,Port-au-Prince,18.5266171438559,-72.3431065358376
Dominican Republic,Independencia,Provincial capital,Jimani,18.4930021171938,-71.8509955326628
Haiti,Sud-Est,Provincial capital,Jacmel,18.234999026379,-72.5370025809449
Dominican Republic,Pedernales,Provincial capital,Pedernales,18.037998011374,-71.7409975514859
Dominican Republic,Valverde,Provincial capital,Mao,19.551996094636,-71.0749974776019
Dominican Republic,Santiago Rodrigu,Provincial capital,Sabaneta,19.5049980734865,-71.344988535657
Dominican Republic,Santiago,Provincial capital,Santiago,19.4560020026358,-70.7069965710938
Dominican Republic,Espaillat,Provincial capital,Moca,19.3969981420109,-70.5230005858986
Dominican Republic,Salcedo,Provincial capital,Salcedo,19.3830030234681,-70.4167014954723
Dominican Republic,La Vega,Provincial capital,La Vega,19.2500009933412,-70.5500005687675
Dominican Republic,Monsenor Novel,Provincial capital,Bonao,18.9420031377923,-70.4089975692015
Dominican Republic,San Juan,Provincial capital,San Juan,18.8070030579641,-71.22899657086
Dominican Republic,Baoruco,Provincial capital,Neiba,18.4789980625334,-71.4220014864625
Dominican Republic,Azua,Provincial capital,Azua,18.4539961293658,-70.7290015951932
Dominican Republic,Peravia,Provincial capital,Bani,18.2799989978271,-70.3310034657806
Dominican Republic,Barahona,Provincial capital,Barahona,18.2079990435101,-71.0999995762532
Dominican Republic,Peravia,Other,Punta Palenque,18.2383830017261,-70.1773916042851
Dominican Republic,Maria Trinidad S,Provincial capital,Nagua,19.3760010788797,-69.8470014928743
Dominican Republic,Duarte,Provincial capital,San Francisco De Macoris,19.3010040500107,-70.2539996165765
Dominican Republic,Samana,Provincial capital,Samana,19.212003131965,-69.3320036031801
Dominican Republic,Sanchez Ramirez,Provincial capital,Cotui,19.0590030635576,-70.1520026048386
Dominican Republic,Monte Plata,Provincial capital,Monte Plata,18.8070030579641,-69.7840015328468
Dominican Republic,Santo Domingo,National and provincial capital,Santo Domingo,18.4889970816737,-69.8990035743945
Dominican Republic,San Cristobal,Provincial capital,San Cristobal,18.415998102506,-70.109000517608
Dominican Republic,Hato Major,Provincial capital,Hato Mayor,18.7640011362172,-69.2569974727099
Dominican Republic,El Seibo,Provincial capital,El Seibo,18.7640011362172,-69.0350034606548
Dominican Republic,La Altagracia,Provincial capital,Higuey,18.6159960265792,-68.7079974900748
Dominican Republic,San Pedro de Macorï¿½s,Provincial capital,San Pedro De Macoris,18.4560031151847,-69.3080005293794
Dominican Republic,La Romana,Provincial capital,La Romana,18.4259971216462,-68.9679984651072
Colombia,Valle del Cauca,Provincial capital,Cali,3.4569991357123,-76.5219955476896
Colombia,Cauca,Provincial capital,Popayan,2.4200010807683,-76.6040036227482
Colombia,Caqueta,Provincial capital,Florencia,1.60599606272999,-75.6150026138043
Colombia,Narino,Provincial capital,Pasto,1.21400101853882,-77.2730006057004
Colombia,Putumayo,Provincial capital,Mocoa,1.14900300881011,-76.618997600658
Ecuador,Carchi,Provincial capital,Tulcan,0.821997038230066,-77.7320004799555
Ecuador,Imbabura,Provincial capital,Ibarra,0.362996998491333,-78.130997468735
Colombia,Boyaca,Provincial capital,Tunja,5.54699701899466,-73.3619965413729
Colombia,Caldas,Provincial capital,Manizales,5.06700008160841,-75.5180005608359
Colombia,Risaralda,Provincial capital,Pereira,4.78299603277528,-75.6669955937232
Colombia,Quindio,Provincial capital,Armenia,4.53099602718182,-75.6980006121122
Colombia,Tolima,Provincial capital,Ibague,4.44099608428547,-75.243995531143
Colombia,Meta,Provincial capital,Villavicencio,4.14999902698157,-73.6399975049846
Colombia,Huila,Provincial capital,Neiva,2.92899605072472,-75.2840005438217
Colombia,Distrito Especial,National capital and provincial capital enclave,Bogota,4.63022102214434,-74.080511530637
Colombia,Atlantico,Provincial capital,Barranquilla,10.9839960699421,-74.806001490653
Colombia,Cesar,Provincial capital,Valledupar,10.4670001305467,-73.2509995353454
Colombia,Bolivar,Provincial capital,Cartagena,10.4139990241758,-75.5340024997139
Colombia,Sucre,Provincial capital,Sincelejo,9.30699906461599,-75.3920004752973
Colombia,Cordoba,Provincial capital,Monteria,8.75700005713026,-75.8819965973075
Panama,Darien,Provincial capital,La Palma,8.3978641102459,-78.137261521687
Colombia,Antioquia,Provincial capital,Medellin,6.24099610059822,-75.5919985648542
Colombia,Choco,Provincial capital,Quibdo,5.69099709311249,-76.6539985529659
Venezuela,Zulia,Provincial capital,Maracaibo,10.6450021321218,-71.6370024900467
Venezuela,Trujillo,Provincial capital,Trujillo,9.3750030850142,-70.4320016181516
Venezuela,Merida,Provincial capital,Merida,8.60100307965455,-71.1489954816202
Colombia,Norde de Santander,Provincial capital,Cucuta,7.89100205917299,-72.503000488004
Venezuela,Tachira,Provincial capital,San Cristobal,7.76500213911809,-72.2279965989442
Colombia,Santander,Provincial capital,Bucaramanga,7.11299701829322,-73.1199955549197
Colombia,Arauca,Provincial capital,Arauca,7.07900402695354,-70.7579994622797
Venezuela,Amazonas,Provincial capital,Puerto Ayacucho,5.66600409606244,-67.6349994579722
Venezuela,Yaracuy,Provincial capital,San Felipe,10.3359959846373,-68.7459955169346
Venezuela,Aragua,Provincial capital,Maracay,10.2449970168903,-67.5939955859266
Venezuela,Carabobo,Provincial capital,Valencia,10.178001122944,-68.003000529964
Venezuela,Lara,Provincial capital,Barquisimeto,10.0659959904646,-69.3389966116509
Venezuela,Cojedes,Provincial capital,San Carlos,9.65799900739543,-68.5899985394589
Venezuela,Portuguesa,Provincial capital,Guanare,9.04400101503163,-69.7499996053895
Venezuela,Barinas,Provincial capital,Barinas,8.63000111222473,-70.2099985044953
Colombia,Casanare,Provincial capital,Yopal,5.34699909492141,-72.4059986005193
Colombia,Guainia,Provincial capital,Puerto Inirida,3.88299610736074,-67.8666956114829
Colombia,Guaviare,Provincial capital,San Jose Del Guavuare,2.58100211861477,-72.5799955665743
Colombia,Vaupes,Provincial capital,Mitu,1.26600310005903,-70.2209965484862
Canada,Ontario,Provincial capital,Toronto,43.7207670284304,-79.4126334922417
United States,New York,Other,Buffalo,42.8986620817249,-78.8484325116392
United States,Michigan,Other,Detroit,42.3943200158144,-83.0789276026148
United States,Ohio,Other,Cleveland,41.3907210313571,-81.7275056306676
United States,Pennsylvania,Other,Pittsburgh,40.4972011150698,-79.9970845427378
United States,Ohio,Provincial capital,Columbus,40.0449961653455,-82.9929955790291
The Bahamas,Bahamas,National capital,Nassau,25.0669980196382,-77.3399964996468
United States,Alabama,Other,Mobile,30.6833040762972,-88.1166955054049
United States,Alabama,Provincial capital,Montgomery,32.3600040384551,-86.2990014797988
United States,Florida,Provincial capital,Tallahassee,30.4499971048478,-84.3000025642634
United States,Florida,Other,Jacksonville,30.3300001045307,-81.6599965718941
United States,Florida,Other,Tampa,27.997353035302,-82.5930265392354
United States,Florida,Other,Miami,25.8321241292565,-80.2702164806446
Cuba,Matanzas,Provincial capital,Matanzas,23.0499991155236,-81.5650015047446
Cuba,Ciudad de la Habana,National and provincial capital,Havana,23.0489550791176,-82.4164554748614
United States,Wisconsin,Other,Milwaukee,43.0679430944598,-87.9907405969053
United States,Wisconsin,Provincial capital,Madison,43.0666650641597,-89.3999966254905
United States,Michigan,Provincial capital,Lansing,42.7259970936428,-84.557996553477
United States,Illinois,Other,Chicago,41.8265460775259,-87.6412975243917
United States,Indiana,Provincial capital,Indianapolis,39.8140021590008,-86.1350035328841
United States,Illinois,Provincial capital,Springfield,39.7940041207202,-89.6540036169029
United States,Ohio,Other,Cincinnati,39.1480110212344,-84.4770144771055
United States,Kentucky,Provincial capital,Frankfort,38.2010041385528,-84.8390035277583
United States,Tennessee,Provincial capital,Nashville,36.1420020065745,-86.8179956343791
United States,West Virginia,Provincial capital,Charleston,38.3550030663272,-81.654002588274
United States,North Carolina,Other,Charlotte,35.2058220577802,-80.835677619312
United States,South Carolina,Provincial capital,Columbia,34.0139971603148,-80.9970025086796
United States,Georgia,Provincial capital,Atlanta,33.7959990821786,-84.3489984696305
United States,Maryland,Other,Baltimore,39.3218820542247,-76.6183854766026
United States,Delaware,Provincial capital,Dover,39.1290030716869,-75.5250025054242
United States,Maryland,Provincial capital,Annapolis,38.9590020395507,-76.4919984902688
United States,District of Columbia,National and provincial capital,Washington D.C.,38.8909081615256,-76.953833596057
United States,Virginia,Provincial capital,Richmond,37.5630030723883,-77.4729985297737
United States,Virginia,Other,Norfolk,36.8792911169757,-76.2685735410125
United States,North Carolina,Provincial capital,Raleigh,35.7910020637951,-78.6439974742116
United States,New York,Other,Brooklyn,40.6639621426423,-74.0112205438212
United States,Pennsylvania,Other,Chester,39.8691631580916,-75.3691675364509
United States,New York,Other,Rochester,43.2104670543375,-77.6356105510425
United States,New York,Provincial capital,Albany,42.6590010342129,-73.7690036011927
United States,New Jersey,Other,Newark,40.7199960680355,-74.1999955316106
United States,New York,Other,New York,40.7078641300117,-73.905236534282
United States,Pennsylvania,Provincial capital,Harrisburg,40.2650010638168,-76.9040005088581
United States,New Jersey,Provincial capital,Trenton,40.2249960511382,-74.7809995574854
United States,Pennsylvania,Other,Philadelphia,39.9275550601448,-75.2182285670189
United States,Maine,Provincial capital,Augusta,44.3210040616292,-69.7719955278877
United States,Vermont,Provincial capital,Montpelier,44.2620000355206,-72.5799955665743
United States,New Hampshire,Provincial capital,Concord,43.2060031326304,-71.5439965364809
United States,Massachusetts,Provincial capital,Boston,42.3749971508634,-71.1029964853214
United States,Rhode Island,Provincial capital,Providence,41.815998149088,-71.425997585865
United States,Connecticut,Provincial capital,Hartford,41.760000133649,-72.7029985775609
Venezuela,Distrito Federal,National and provincial capital,Caracas,10.4960430091885,-66.8982774600712
Venezuela,Miranda,Provincial capital,Los Teques,10.3419990698587,-67.0400004790383
Venezuela,Anzoategui,Provincial capital,Barcelona,10.1330009860122,-64.6919995049411
Venezuela,Guarico,Provincial capital,San Juan De Los Morros,9.90099901869925,-67.3540015852923
Venezuela,Bolivar,Provincial capital,Ciudad Bolivar,8.12700012588844,-63.5529955021416
Venezuela,Apure,Provincial capital,San Fernado de Apure,7.90194599000733,-67.4800015053472
Colombia,Vichada,Provincial capital,Puerto Carreno,6.18499808515914,-67.4890014996368
Brazil,Roraima,Provincial capital,Boa Vista,2.8179990446972,-60.6639955148483
Venezuela,Anzoategui,Other,Puerto La Cruz,10.2327030703642,-64.6333014581184
Venezuela,Neuva Esparta,Provincial capital,La Asuncion,11.0333340300327,-63.8833315003959
Trinidad & Tobago,Trinidad & Tobago,National capital,Port of Spain,10.6397371040204,-61.4900604855187
Venezuela,Sucre,Provincial capital,Cumana,10.4540040368545,-64.1819965740165
Venezuela,Monagas,Provincial capital,Maturin,9.74199603055406,-63.1819975210816
Venezuela,Delta Amacuro,Provincial capital,Tucupita,9.0569971087238,-62.0499954628705
Guyana,Demerara-Mahaica,National capital,Georgetown,6.76999804495277,-58.1699965824157
Suriname,Nickerie,Provincial capital,Nieuw Nickerie,5.93800197445278,-56.9919955279057
Suriname,Coronie,Provincial capital,Totness,5.88330002703261,-56.3166985820475
British Virgin Is.,British Virgin Is.,National and provincial capital,Road Town,18.4090681433094,-64.621700557157
Puerto Rico,San Juan,National and provincial capital,San Juan,18.3989971387773,-66.0689994586737
Virgin Is.,Virgin Is.,National and provincial capital,Charlotte Amalie,18.3500010679266,-64.9333345851497
Anguilla,Anguilla,National and provincial capital,The Valley,18.2166660846774,-63.0666625264116
Puerto Rico,Mayag?ez,Provincial capital,Mayaguez,18.2030040847406,-67.1429965156268
Puerto Rico,Ponce,Provincial capital,Ponce,18.0209970476453,-66.6140035073899
St. Kitts & Nevis,St. Kitts & Nevis,National capital,Basseterre,17.2929960385845,-62.7319974756325
Antigua & Barbuda,Antigua & Barbuda,National capital,Saint John's,17.1247770999744,-61.8421764500958
Montserrat,Montserrat,National and provincial capital,Plymouth,16.6799970710713,-62.2009974815767
St. Lucia,St. Lucia,Other,Cul De Sac,14.0166990881849,-61.000001479718
Guadeloupe,Guadeloupe,National and provincial capital,Basse-Terre,16.0049160813883,-61.7242585864729
Dominica,Dominica,National capital,Roseau,15.2990010179362,-61.3884685777785
Martinique,Martinique,National and provincial capital,Fort-De-France,14.6074320638681,-61.0759975334376
St. Lucia,St. Lucia,National capital,Castries,14.0000041037422,-60.9830005159894
St. Vincent & the Grenadines,St. Vincent & the Grenadines,National capital,Kingstown,13.1553630958748,-61.2293125172486
Barbados,Barbados,National capital,Bridgetown,13.0958730442592,-59.6158465090123
Grenada,Grenada,National capital,Saint George's,12.0650040076012,-61.7450034525075
Suriname,Para,Provincial capital,Onverwacht,5.5999981253655,-55.199996481032
Suriname,Commewijne,Provincial capital,Nieuw Amsterdam,5.91100199158387,-55.0729975361265
Suriname,Paramaribo,National capital and provincial capital enclave,Paramaribo,5.82599700745703,-55.1699995890949
Suriname,Saramacca,Provincial capital,Groningen,5.79699897488685,-55.4810034553132
Suriname,Marowijne,Provincial capital,Albina,5.49600306392634,-54.0739975080423
Suriname,Brokopondo,Provincial capital,Brokopondo,5.06670303844013,-54.9666984457002
French Guiana,Cayenne,National capital,Cayenne,4.93499707633212,-52.3299955071686
Brazil,Amapa,Provincial capital,Macapa,0.0360001295125514,-51.0479995567032
Greenland,Nordgronland,Provincial capital,Thule,77.4829981901755,-69.3449995313886
Canada,Ontario,Other,Moosonee,51.3299970954953,-80.7299995890587
Canada,Newfoundland and Labrador,Provincial capital,Saint John's,47.5650000911045,-52.7339965563189
Canada,Quebec,Provincial capital,Quebec,46.8019981297357,-71.244998509738
St. Pierre & Miquelon,St. Pierre & Miquelon,National and provincial capital,Saint-Pierre,46.785996025374,-56.1940015503467
Canada,Quebec,Other,Montreal,45.5410171146366,-73.6535335718568
Canada,Ontario,National capital,Ottawa,45.3740040554512,-75.6510025909628
Greenland,Vestgronland,Other,Godhavn,69.2440021857629,-53.5529965331267
Canada,Nunavut,Provincial capital,Iqaluit,63.7553520441364,-68.5414615202788
Canada,New Brunswick,Other,Canaport,45.2424781395644,-65.9673714754958
Greenland,Vestgronland,National and provincial capital,Nuuk,64.2711871156625,-51.5799985756096
Canada,Quebec,Other,Sept-Iles,50.282541135224,-66.4025484876551
Canada,Prince Edward Island,Provincial capital,Charlottetown,46.2406050758626,-63.1394455494041
Canada,New Brunswick,Provincial capital,Fredericton,45.9450001260681,-66.6569964930192
Canada,Quebec,Other,Schefferville,54.801000133514,-66.8109955862773
Canada,New Brunswick,Other,Saint John,45.2639971381567,-66.0680005993067
Canada,Newfoundland and Labrador,Other,Goose Bay,53.2950930428016,-60.2815584758456
France,Basse-Normandie,Other,Cherbourg,49.6500030156173,-1.6333015491069
France,Bretagne,Other,Brest,48.3832980862299,-4.49999946913252
Greenland,Ostgronland,Other,Scoresbyund,70.5285720690636,-22.996322525529
Greenland,Ostgronland,Other,Angmagssalik,65.6330310829829,-37.7077675362011
Guernsey,Guernsey,National and provincial capital,St. Peter Port,49.4499961554265,-2.53330147452144
Jersey,Jersey,National and provincial capital,St. Helier,49.1832990496078,-2.0999964135151
France,Basse-Normandie,Provincial capital,Caen,49.1750010370006,-0.336995399211531
France,Bretagne,Provincial capital,Rennes,48.1190041341103,-1.67699651641857
France,Pays de la Loire,Provincial capital,Nantes,47.2190040432121,-1.56200341098852
United Kingdom,Scotland,Other,Dundee,56.4667020516809,-2.96669639315473
Faroe Is.,Faeroe Islands,National and provincial capital,Torshavn,62.0209980715619,-6.76999740369126
Iceland,Reykjavik,National and provincial capital,Reykjavik,64.1349990286449,-21.8950014687022
United Kingdom,England,Other,Southampton,50.9000040244443,-1.40000351377506
United Kingdom,England,Other,Fawley,50.8167000468505,-1.3332953959121
United Kingdom,Northern Ireland,Provincial capital,Belfast,54.5869981547803,-5.91000249095538
United Kingdom,England,Other,Sheffield,53.3740411595178,-1.46299453768492
Ireland,Leinster,National and provincial capital,Dublin,53.3415600268886,-6.25734855453953
Ireland,Connacht,Provincial capital,Galway,53.271000111374,-9.06499743690128
United Kingdom,England,Other,Birmingham,52.4927521404825,-1.86334154215626
Ireland,Munster,Provincial capital,Cork,51.8979960915603,-8.49099552109854
United Kingdom,England,National and provincial capital,London,51.4879110356793,-0.178001512667606
United Kingdom,Scotland,Other,Hunterston,55.7367481699578,-4.85677743935685
United Kingdom,England,Other,Teesport,54.6000031845901,-1.16669654232564
United Kingdom,Scotland,Provincial capital,Edinburgh,55.9240020319518,-3.24999846030551
United Kingdom,Scotland,Other,Glasgow,55.8628111392868,-4.2699414383643
Isle of Man,Isle of Man,National and provincial capital,Douglas,54.1519290379669,-4.47918245222257
United Kingdom,England,Other,Leeds,53.8087051723335,-1.4975275022046
United Kingdom,England,Other,Manchester,53.4796650766145,-2.26178052003695
United Kingdom,Wales,Provincial capital,Cardiff,51.4833390531427,-3.21666243909289
United Kingdom,England,Other,Liverpool,53.4230011549308,-2.97099847184313
Portugal,Azores,Provincial capital,Ponta Delgada,37.7462970759012,-25.6922095363903
Spain,Asturias,Provincial capital,Oviedo,43.3690020546944,-5.84700253092794
Spain,Galicia,Provincial capital,Santiago De Compostela,42.8799960214173,-8.5409995529175
Portugal,Viana do Castelo,Provincial capital,Viana Do Castelo,41.696235142665,-8.84413748436276
Portugal,Porto,Provincial capital,Porto,41.166000014082,-8.58500049951502
Portugal,Aveiro,Provincial capital,Aveiro,40.6410031052476,-8.65099753409439
Portugal,Leiria,Provincial capital,Leiria,39.7389960285305,-8.80499646186883
Cape Verde,Cape Verde,National capital,Praia,14.9229991419891,-23.5209954173587
Spain,Canarias,Provincial capital,Santa Cruz de Tenerife,28.4667030850222,-16.2500035242425
Spain,Canarias,Other,Las Palmas,28.1500021128683,-15.416702449606
Spain,Aragon,Provincial capital,Zaragoza,41.651001011839,-0.878003514008896
Spain,Valenciana,Provincial capital,Valencia,39.4710030201767,-0.367001392749955
Portugal,Madeira,Provincial capital,Funchal,32.6451600190399,-16.8219355704359
Western Sahara,Saguia el Hamra,Other,Laayoune,27.0000000660779,-13.1799955247046
Mauritania,Tiris Zemmour,Provincial capital,Fderik,22.6790011344636,-12.7070005319067
Portugal,Braganca,Provincial capital,Braganca,41.8079970141654,-6.75500342578147
Portugal,Braga,Provincial capital,Braga,41.5449991300647,-8.42699653622046
Portugal,Vila Real,Provincial capital,Vila Real,41.2939981493219,-7.73700249013703
Portugal,Viseu,Provincial capital,Viseu,40.656996108008,-7.91000043134139
Portugal,Guarda,Provincial capital,Guarda,40.541004143211,-7.26200051152028
Portugal,Coimbra,Provincial capital,Coimbra,40.2129991477803,-8.41599849222956
Portugal,Castelo Branco,Provincial capital,Castelo Branco,39.8109961483313,-7.48799955909547
Morocco,North-West,National and provincial capital,Rabat,34.0149960196817,-6.83299752920237
Portugal,Portalegre,Provincial capital,Portalegre,39.2900041095333,-7.42300154936677
Portugal,Santarem,Provincial capital,Santarem,39.2310000834247,-8.68200255248343
Spain,Extremadura,Provincial capital,Merida,38.9120040184013,-6.33799751230509
Portugal,Lisboa,National and provincial capital,Lisbon,38.7299971467897,-9.12999544663001
Portugal,Evora,Provincial capital,Evora,38.5599961146536,-7.9059955613049
Portugal,Setubal,Provincial capital,Setubal,38.5209990629432,-8.88200047655667
Portugal,Beja,Provincial capital,Beja,38.014002142688,-7.86300241019194
Spain,Andalucia,Provincial capital,Seville,37.3730041674553,-5.97099546516398
Portugal,Faro,Provincial capital,Faro,37.0189980485227,-7.92800041992066
France,Aquitaine,Provincial capital,Bordeaux,44.8409970755765,-0.599003525546522
Spain,Cantabria,Provincial capital,Santander,43.4626110307144,-3.80053744097123
Spain,Navarra,Provincial capital,Pamplona,42.813000127471,-1.65300254421916
Spain,La Rioja,Provincial capital,Logrono,42.4659961186104,-2.44600139752507
Spain,Castilla y Leon,Provincial capital,Valladolid,41.6500021524721,-4.72100355793822
Spain,Madrid,National and provincial capital,Madrid,40.4422201622002,-3.69097153762851
Spain,Castilla-La Mancha,Provincial capital,Toledo,39.8590021304489,-4.02800350118528
Spain,Pais Vasco,Other,Bilbao,43.2821520932511,-2.97377942473611
Spain,Pais Vasco,Provincial capital,Vitoria,42.8501611379825,-2.6747813979932
Spain,Melilla,Provincial capital,Melilla,35.3164861106854,-2.96595850151834
Spain,Murcia,Provincial capital,Murcia,37.9800000497471,-1.13399945352123
Gibraltar,Gibraltar,National and provincial capital,Gibraltar,36.1289971422484,-5.35200251403066
Morocco,Centre-North,Provincial capital,Fes,34.0440031538532,-4.99599851088044
Morocco,Centre-South,Provincial capital,Meknes,33.9039990136542,-5.55699539687342
Spain,Ceuta,Provincial capital,Ceuta,35.883297099561,-5.31669541695322
Algeria,Oran,Other,Oran,35.7499980262658,-0.52000146115742
Algeria,Sidi bel Abbes,Provincial capital,Sidi-Bel-Abbes,35.1970021097118,-0.638999436623948
Algeria,Tlemcen,Provincial capital,Tlemcen,34.8830010034579,-1.31399950479758
Morocco,Eastern,Provincial capital,Oujda,34.6889970630048,-1.91199539279972
Morocco,Centre,Provincial capital,Casablanca,33.605001152395,-7.63199946772966
Morocco,Tensift,Provincial capital,Marrakech,31.6310040045436,-8.01199744307928
Algeria,Bechar,Provincial capital,Bechar,31.6080001210772,-2.22000251543352
Morocco,South,Provincial capital,Agadir,30.4180019977258,-9.61100051046813
Algeria,Adrar,Provincial capital,Adrar,27.8679961137364,-0.289997543545752
Algeria,Tindouf,Other,Tindouf,27.7000020674192,-8.16000255271723
Mauritania,Assaba,Provincial capital,Kiffa,16.6169971110439,-11.4039984167088
Mauritania,Gorgol,Provincial capital,Kaedi,16.152003087685,-13.4970024761444
Mauritania,Guidimaka,Provincial capital,Selibabi,15.1610040290398,-12.1760005378509
Mali,Kayes,Provincial capital,Kayes,14.4489960227394,-11.4290005153601
Guinea-Bissau,Tombali,Provincial capital,Catio,11.2167000189373,-15.1667004937138
Guinea,Boke,Provincial capital,Boke,10.9389960984939,-14.2970034395223
Sierra Leone,Southern,Provincial capital,Bo,7.96799713774325,-11.7340014618408
Liberia,Grand Cape Mount,Provincial capital,Robertsport,6.75000000667223,-11.3667025370151
Guinea,Telimele,Provincial capital,Telimele,10.9050031071542,-13.0429975606588
Guinea,Fria,Provincial capital,Fria,10.3779990470173,-13.5520014667328
Guinea,Boffa,Provincial capital,Boffa,10.1850030675324,-14.04299644811
Guinea,Kindia,Provincial capital,Kindia,10.0549981119574,-12.8660035200519
Guinea,Conakry,National and provincial capital,Conakry,9.54999907591981,-13.67199846705
Guinea,Forecariah,Provincial capital,Forecariah,9.43000207560264,-13.0979965512472
Sierra Leone,Northern,Provincial capital,Makeni,8.88100209296755,-12.0439975325746
Sierra Leone,Western Area,National and provincial capital,Freetown,8.4860010381069,-13.2389995508132
Guinea,Pita,Provincial capital,Pita,11.0799990980598,-12.4010005605755
Guinea,Dalaba,Provincial capital,Dalaba,10.656000010629,-12.2720035659686
Guinea,Mamou,Provincial capital,Mamou,10.3740031130984,-12.0920035146923
Mauritania,Dakhlet Nouadhibou,Other,Nouadhibou,20.9000521289549,-17.0667355475009
Mauritania,Adrar,Provincial capital,Atar,20.5110000461591,-13.0499995052472
Mauritania,Inchiri,Provincial capital,Akjoujt,19.7469990599397,-14.3909994818212
Mauritania,Tagant,Provincial capital,Tidjikdja,18.5580001269226,-11.4309985650614
Mauritania,Brakna,Provincial capital,Aleg,17.0579969967197,-13.9089955586161
Senegal,Thies,Provincial capital,Thies,14.8050000258896,-16.9239954659643
Senegal,Dakar,National and provincial capital,Dakar,14.6870010752737,-17.4519985509518
Mauritania,Trarza,National capital,Nouakchott,18.0839970076728,-15.9779965442509
Senegal,Louga,Provincial capital,Louga,15.750000088236,-16.0832964443429
Mauritania,Trarza,Provincial capital,Rosso,16.5120030247541,-15.7989955178251
Senegal,Saint-Louis,Other,Saint Louis,15.9512129933351,-16.2978385617402
Senegal,Diourbel,Provincial capital,Diourbel,14.6529989823328,-16.2340014198808
Senegal,Fatick,Provincial capital,Fatick,14.3440021019332,-16.4159995208585
Senegal,Kaolack,Provincial capital,Kaolack,14.1429960514081,-16.0959954948668
The Gambia,North Bank,Provincial capital,Kerewan,13.4939971067364,-16.0949964700162
The Gambia,Banjul,National capital and provincial capital enclave,Banjul,13.4639550377603,-16.5967914114441
The Gambia,Banjul,Provincial capital,Bathurst,13.4550000550259,-16.5889974620628
The Gambia,Lower River,Provincial capital,Mansa Konko,13.3773120963746,-15.6785664396738
The Gambia,Western,Provincial capital,Brikama,13.2789961031521,-16.6529964469409
Senegal,Ziguinchor,Provincial capital,Ziguinchor,12.580002062779,-16.2839965155822
Guinea-Bissau,Cacheu,Provincial capital,Cacheu,12.268998031077,-16.1649985401156
Guinea-Bissau,Bolama,Provincial capital,Bolama,11.5830000843961,-15.4860025380231
Guinea-Bissau,Bissau,National capital and provincial capital enclave,Bissau,11.8639981225597,-15.5979985689013
The Gambia,MacCarthy Island,Provincial capital,Georgetown,13.5510030831437,-14.7670015232519
The Gambia,Upper River,Provincial capital,Basse Santa Su,13.3100011215411,-14.2229964993863
Senegal,Kolda,Provincial capital,Kolda,12.8999969871695,-14.9439955638588
Guinea-Bissau,Oio,Provincial capital,Farim,12.4929990289509,-15.2270004223576
Guinea-Bissau,Gabu,Provincial capital,Gabu,12.2799960750679,-14.2340034794948
Guinea-Bissau,Bafata,Provincial capital,Bafata,12.1680000441897,-14.6899975085641
Guinea-Bissau,Quinara,Provincial capital,Fulacunda,11.7729989893291,-15.1949965446016
Senegal,Tambacounda,Provincial capital,Tambacounda,13.7729970951987,-13.6780015522714
Guinea,Koundara,Provincial capital,Koundara,12.4800031007424,-13.2959964256192
Guinea,Mali,Provincial capital,Mali,12.0840030210311,-12.3010014330551
Guinea,Gaoual,Provincial capital,Gaoual,11.7540001413828,-13.2129984273112
Guinea,Tougue,Provincial capital,Tongue,11.4399990351289,-11.6700024769627
Guinea,Labe,Provincial capital,Labe,11.3229991093636,-12.2990035488376
Mauritania,Hodh el Gharbi,Provincial capital,Ayoun El Atrous,16.6609980576414,-9.61700343020587
Mauritania,Hodh ech Chargui,Provincial capital,Nema,16.6159980861932,-7.26100148666967
Mali,Segou,Provincial capital,Segou,13.436001041596,-6.25499951399709
Mali,Bamako,National and provincial capital,Bamako,12.6529560303914,-7.98648251056809
Guinea,Siguiri,Provincial capital,Siguiri,11.4190021374814,-9.17900045359829
Mali,Sikasso,Provincial capital,Sikasso,11.3149981399246,-5.67299646327169
Guinea,Dinguiraye,Provincial capital,Dinguiraye,11.298996035563,-10.726001439467
Mali,Gao,Other,Timbuktu,16.7599979948274,-3.00999552355358
Mali,Gao,Provincial capital,Gao,16.2729991128528,-0.0510024022784137
Mali,Mopti,Provincial capital,Mopti,14.4829981156803,-4.18300145381036
Burkina Faso,Oudalan,Provincial capital,Gorom Gorom,14.4500039837076,-0.233297546424325
Burkina Faso,Soum,Provincial capital,Djibo,14.0990040409282,-1.62700142071722
Burkina Faso,Sourou,Provincial capital,Tougan,13.0689989944549,-3.06999840902913
Burkina Faso,Kossi,Provincial capital,Nouna,12.7289970956664,-3.86000051875044
Burkina Faso,Mouhoun,Provincial capital,Dedougou,12.4550010020911,-3.46400043903915
Burkina Faso,Yatenga,Provincial capital,Ouahigouya,13.569003071723,-2.41700353043854
Burkina Faso,Passore,Provincial capital,Yako,12.9539971183909,-2.26299550106285
Burkina Faso,Oubritenga,Provincial capital,Ziniare,12.5769960521095,-1.29300244166643
Burkina Faso,Kadiogo,National and provincial capital,Ouagadougou,12.4800031007424,-1.6700035079478
Burkina Faso,Sanguie,Provincial capital,Reo,12.3334921430634,-2.46694451298333
Burkina Faso,Boulkiemde,Provincial capital,Koudougou,12.2489999927965,-2.36400242406771
Burkina Faso,Bazega,Provincial capital,Kombissiri,12.063996046633,-1.33399754307814
Burkina Faso,Seno,Provincial capital,Dori,14.0339970950818,-0.0279985188120406
Burkina Faso,Sanmatenga,Provincial capital,Kaya,13.0879980078848,-1.08800045722242
Burkina Faso,Gnagna,Provincial capital,Bogande,12.9690000324183,-0.13799649998893
Burkina Faso,Namentenga,Provincial capital,Boulsa,12.6569971413493,-0.568997532008126
Burkina Faso,Ganzourgou,Provincial capital,Zorgo,12.2429970730587,-0.61100042890439
Burkina Faso,Kouritenga,Provincial capital,Koupela,12.1770000384794,-0.356003514242701
Burkina Faso,Boulgou,Provincial capital,Tenkodogo,11.7739980141797,-0.359000423310931
Burkina Faso,Zoundweogo,Provincial capital,Manga,11.6620019833016,-1.06499640827238
Liberia,Rivercess,Provincial capital,Rivercess,5.46499804553731,-9.57799744237784
Liberia,Sino,Provincial capital,Greenville,5.00799605549983,-9.03699842918175
Cote d'Ivoire,Sassandra,Provincial capital,Sassandra,4.95099901521012,-6.07899539663958
Liberia,Grand Kru,Provincial capital,Barclayville,4.79999699650392,-8.16669851801973
Cote d'Ivoire,San-Pedro,Provincial capital,San Pedro,4.76199913512777,-6.63699553904797
Cote d'Ivoire,Tabou,Provincial capital,Tabou,4.41600308723542,-7.35699541318616
Liberia,Maryland,Provincial capital,Harper,4.38599709369702,-7.71399844118699
Cote d'Ivoire,Tengrela,Provincial capital,Tingrela,10.4810040197234,-6.40899844177153
Cote d'Ivoire,Boundiali,Provincial capital,Boundiali,9.52200006820027,-6.48899953101127
Cote d'Ivoire,Odienne,Provincial capital,Odienne,9.50900413999176,-7.57700047714121
Cote d'Ivoire,Korhogo,Provincial capital,Korhogo,9.44600401448065,-5.64499745555216
Liberia,Lofa,Provincial capital,Voinjama,8.41670111517344,-9.74999652421519
Sierra Leone,Eastern,Provincial capital,Kenema,7.87699800451259,-11.1850014792057
Guinea,Nzerekore,Provincial capital,Nzerekore,7.75500311997782,-8.81800149167859
Guinea,Yomou,Provincial capital,Yomou,7.56299706374232,-9.26000040220504
Liberia,Nimba,Provincial capital,Sanniquellie,7.37100010910807,-8.68499946155166
Liberia,Bong,Provincial capital,Gbarnga,7.00000212804808,-9.4832994183966
Liberia,Margibi,Provincial capital,Kakata,6.52599900879832,-10.3490005386692
Liberia,Montserrado,Provincial capital,Bentol,6.43329903451833,-10.600001519412
Liberia,Grand Bassa,Provincial capital,Buchanan,5.88300298386433,-10.0439994267049
Liberia,Montserrado,National capital,Monrovia,6.30099898607376,-10.7970025344171
Guinea,Dabola,Provincial capital,Dabola,10.7479980032266,-11.1089964893685
Guinea,Kouroussa,Provincial capital,Kouroussa,10.6530031015608,-9.89199854863176
Guinea,Kankan,Provincial capital,Kankan,10.3840021322387,-9.30599939850384
Guinea,Faranah,Provincial capital,Faranah,10.0389960075957,-10.7430024031956
Guinea,Kerouane,Provincial capital,Kerouane,9.26499600223605,-9.01400348183296
Guinea,Kissidougou,Provincial capital,Kissidougou,9.18700206429882,-10.1130024719538
Guinea,Beyla,Provincial capital,Beyla,8.68699798703078,-8.65700045383213
Guinea,Gueckedou,Provincial capital,Gueckedou,8.55399612238751,-10.1510004988136
Guinea,Macenta,Provincial capital,Macenta,8.54199905354598,-9.47099653575285
Cote d'Ivoire,Touba,Provincial capital,Touba,8.28000002881225,-7.68400154924984
Cote d'Ivoire,Biankouma,Provincial capital,Biankouma,7.7333040751643,-7.616699510534
Cote d'Ivoire,Man,Provincial capital,Man,7.40500203656535,-7.54299854968391
Cote d'Ivoire,Danane,Provincial capital,Danane,7.26100212793118,-8.15399946749582
Cote d'Ivoire,Bangolo,Provincial capital,Bangolo,7.01669711249085,-7.48330147801059
Cote d'Ivoire,Duekoue,Provincial capital,Duekoue,6.74199903723323,-7.33599851553865
Cote d'Ivoire,Guiglo,Provincial capital,Guiglo,6.55000208259898,-7.48330147801059
Liberia,Grand Jide,Provincial capital,Zwedru,6.06670209137496,-8.13329944753295
Cote d'Ivoire,Mankono,Provincial capital,Mankono,8.05400098123707,-6.18800345456711
Cote d'Ivoire,Seguela,Provincial capital,Seguela,7.95999600282058,-6.66600250773575
Cote d'Ivoire,Zuenoula,Provincial capital,Zuenoula,7.43499909398616,-6.04999752955308
Cote d'Ivoire,Vavoua,Provincial capital,Vavoua,7.37299799332568,-6.48299644578989
Cote d'Ivoire,Bouafle,Provincial capital,Bouafle,6.97799710394868,-5.74800242825827
Cote d'Ivoire,Daloa,Provincial capital,Daloa,6.88200301194853,-6.4459974437807
Cote d'Ivoire,Sinfra,Provincial capital,Sinfra,6.61799700139594,-5.91200054065663
Cote d'Ivoire,Issia,Provincial capital,Issia,6.48500407287027,-6.58799946819727
Cote d'Ivoire,Gagnoa,Provincial capital,Gagnoa,6.14600103344869,-5.87199552797799
Cote d'Ivoire,Lakota,Provincial capital,Lakota,5.84800203155643,-5.68299548241197
Cote d'Ivoire,Soubre,Provincial capital,Soubre,5.78199606085948,-6.60300254770831
Burkina Faso,Houet,Provincial capital,Bobo Dioulasso,11.1780000103952,-4.29200041013661
Burkina Faso,Kenedougou,Provincial capital,Orodara,10.9739970508018,-4.9079964522017
Burkina Faso,Bougouriba,Provincial capital,Diebougou,10.9520011283037,-3.24800041060425
Burkina Faso,Comoe,Provincial capital,Banfora,10.6270021435425,-4.75800239446372
Burkina Faso,Poni,Provincial capital,Gaoua,10.3249981061301,-3.17400240658588
Cote d'Ivoire,Ferkessedougou,Provincial capital,Ferkessedougou,9.59400002251735,-5.20199952017509
Cote d'Ivoire,Bouna,Provincial capital,Bouna,9.26900103775618,-2.99199553497431
Cote d'Ivoire,Tanda,Provincial capital,Tanda,7.79799610560714,-3.16600143714689
Cote d'Ivoire,Agnibilekrou,Provincial capital,Agnibilekrou,7.12800009780425,-3.20200141430544
Cote d'Ivoire,Yamoussoukro,National and provincial capital,Yamoussoukro,6.81800402707044,-5.28299946878181
Cote d'Ivoire,Dimbokro,Provincial capital,Dimbokro,6.64399812489787,-4.70500145357653
Cote d'Ivoire,Toumodi,Provincial capital,Toumodi,6.55200013230025,-5.01900239434681
Cote d'Ivoire,Oume,Provincial capital,Oume,6.37599601494275,-5.42400246834774
Cote d'Ivoire,Tiassale,Provincial capital,Tiassale,5.8770000641266,-4.82200154482547
Cote d'Ivoire,Divo,Provincial capital,Divo,5.83900203726679,-5.36000348346965
Cote d'Ivoire,Dabakala,Provincial capital,Dabakala,8.3570040435001,-4.41999854537644
Cote d'Ivoire,Katiola,Provincial capital,Katiola,8.14400108961708,-5.1080034778762
Cote d'Ivoire,Bouake,Provincial capital,Bouake,7.68799812443024,-5.03099946318835
Cote d'Ivoire,Beoumi,Provincial capital,Beoumi,7.66899911100034,-5.57600351190456
Cote d'Ivoire,Mbahiakro,Provincial capital,Mbahiakro,7.47000004629406,-4.46100241742209
Cote d'Ivoire,Sakassou,Provincial capital,Sakassou,7.45100103286416,-5.29399751277271
Cote d'Ivoire,Daoukro,Provincial capital,Daoukro,7.05200404408463,-3.95900045593643
Cote d'Ivoire,Abengourou,Provincial capital,Abengourou,6.72699612320586,-3.49000139705743
Cote d'Ivoire,Bongouanou,Provincial capital,Bongouanou,6.65000104463561,-4.200002417539
Cote d'Ivoire,Adzope,Provincial capital,Adzope,6.09800398744861,-3.86399645266931
Cote d'Ivoire,Agboville,Provincial capital,Agboville,5.92700409594553,-4.22199850552079
Burkina Faso,Nahouri,Provincial capital,Po,11.1690000161056,-1.13499847837184
Burkina Faso,Sissili,Provincial capital,Leo,11.0940029872366,-2.09799852929751
Ghana,Upper East,Provincial capital,Bolgatanga,10.7667001389719,-0.866699490732117
Ghana,Upper West,Provincial capital,Wa,10.0549981119574,-2.49599649322639
Ghana,Northern,Provincial capital,Tamale,9.39699900751235,-0.833003542560704
Cote d'Ivoire,Bondoukou,Provincial capital,Bondoukou,8.02800002321879,-2.79199744541739
Ghana,Brong-Ahafo,Provincial capital,Sunyani,7.3359989913165,-2.33600341634815
Ghana,Ashanti,Provincial capital,Kumasi,6.68700004664478,-1.62199752583012
Ghana,Eastern,Provincial capital,Koforidua,6.08699700734012,-0.261998535826223
Ghana,Greater Accra,National and provincial capital,Accra,5.55856201000201,-0.200924474624628
Cote d'Ivoire,Aboisso,Provincial capital,Aboisso,5.4666990520703,-3.20000353008783
Cote d'Ivoire,Abidjan,Provincial capital,Abidjan,5.32485903615609,-4.02189252061808
Cote d'Ivoire,Grand-Lahou,Provincial capital,Grand Lahou,5.1309990664865,-5.02299849374936
Ghana,Central,Provincial capital,Cape Coast,5.10499810846822,-1.2470034453676
Ghana,Western,Provincial capital,Sekondi,4.93000211756261,-1.71199746872648
Chad,Biltine,Provincial capital,Biltine,14.5340010068662,20.9230025667856
Chad,Ouaddai,Provincial capital,Abeche,13.8369960800768,20.8320035990386
Niger,Zinder,Provincial capital,Zinder,13.7970000035158,8.99399748524985
Niger,Maradi,Provincial capital,Maradi,13.4900010073338,7.1010006169725
Chad,Batha,Provincial capital,Ati,13.2139980934234,18.3380045011223
Nigeria,Katsina,Provincial capital,Katsina,12.993003106219,7.60599948752639
Chad,Guera,Provincial capital,Mongo,12.1869990576196,18.698004603675
Nigeria,Kano,Provincial capital,Kano,11.9999970617549,8.49999649320321
Nigeria,Jigawa,Provincial capital,Dutse,11.7991890951698,9.35033460700606
Russia,Taymyrskiy(Dolgano-Nenetskiy) avt.okrug,Other,Noril`sk,69.3299970931391,88.1000016642609
Nigeria,Abia,Provincial capital,Umuahia,5.53200304108488,7.48600248720925
Nigeria,Imo,Provincial capital,Owerri,5.49299705325684,7.02600358810352
Nigeria,Akwa Ibom,Provincial capital,Uyo,5.00799605549983,7.84999852368085
Nigeria,Cross River,Provincial capital,Calabar,4.95700210043152,8.3140024583067
Nigeria,Rivers,Provincial capital,Port Harcourt,4.78500301859415,7.00499758885476
Sao Tome & Principe,Principe,Provincial capital,Santo Antonio,1.64500205055802,7.41200448319088
Sao Tome & Principe,Sao Tome,National and provincial capital,Sao Tome,0.336996040473061,6.72800458621126
Russia,Taymyrskiy(Dolgano-Nenetskiy) avt.okrug,Provincial capital,Dudinka,69.4500031950575,86.2170036496401
Algeria,Annaba,Provincial capital,Annaba,36.9029971476081,7.75600248138196
Algeria,Skikda,Provincial capital,Skikda,36.8810010596263,6.90800447200397
Algeria,Jijel,Provincial capital,Jijel,36.8219970335177,5.76600356013623
Cameroon,Ouest,Provincial capital,Bafoussam,5.48600404478607,10.4130005013623
Cameroon,Sud-Ouest,Provincial capital,Buea,4.15500308735233,9.23100351293354
Cameroon,Littoral,Other,Douala,4.13665210793188,9.7063745201103
Equatorial Guinea,Bioko Norte,National and provincial capital,Malabo,3.74360409121719,8.77256148409364
Equatorial Guinea,Bioko Sur,Provincial capital,Luba,3.44999702564027,8.55000052502214
Cameroon,Sud,Provincial capital,Ebolowa,2.91799800673382,11.1480036204952
Nigeria,Bauchi,Provincial capital,Bauchi,10.3100041282203,9.84500150529735
Nigeria,Plateau,Provincial capital,Jos,9.92400306764929,8.8929994983626
Nigeria,Benue,Provincial capital,Makurdi,7.74700198505516,8.52300054215323
Cameroon,Nord-Ouest,Provincial capital,Bamenda,5.95899903758395,10.1480045675604
Equatorial Guinea,Litoral,Provincial capital,Bata,1.84968001799731,9.81646252439782
Equatorial Guinea,Centro Sur,Provincial capital,Evinayong,1.44999908525428,10.5667025514522
Gabon,Estuaire,National and provincial capital,Libreville,0.390996006210869,9.45399654983922
Benin,Atakora,Provincial capital,Natitingou,10.3130010372886,1.38899751148159
Benin,Borgou,Provincial capital,Parakou,9.33000311356602,2.62600259210012
Togo,Bassar,Provincial capital,Bassar,9.26100006831717,0.789003573778189
Togo,Sotouboua,Provincial capital,Sotouboua,8.55700213305701,0.98499646233131
Nigeria,Osun,Provincial capital,Oshogbo,7.76600099848507,4.56100252275741
Nigeria,Oyo,Other,Ibadan,7.37883907004471,3.8952814543228
Nigeria,Ondo,Provincial capital,Akure,7.24699807327078,5.1939995285511
Nigeria,Ogun,Provincial capital,Abeokuta,7.15899601459203,3.34999856564082
Nigeria,Lagos,Other,Lagos,6.45000312056236,3.30000346993947
Nigeria,Kwara,Provincial capital,Ilorin,8.49200412332829,4.54500058387939
Benin,Zou,Provincial capital,Abomey,7.18399811324333,1.98900055078627
Togo,Kloto,Provincial capital,Kpalime,6.90200105022907,0.632997494701215
Benin,Mono,Provincial capital,Lokossa,6.6150000923277,1.71500445721099
Benin,Oueme,National and provincial capital,Porto Novo,6.60110409849676,2.63250047346253
Ghana,Volta,Provincial capital,Ho,6.59999701281667,0.470997597487781
Benin,Atlantique,Provincial capital,Cotonou,6.35699700151284,2.43999945560233
Togo,Golfe,National and provincial capital,Lome,6.10283710319942,1.20154556554746
Nigeria,Kaduna,Provincial capital,Kaduna,10.5190020465832,7.44300056546231
Nigeria,Niger,Provincial capital,Minna,9.60800407717775,6.55299949370439
Nigeria,Abuja Capital Territory (Abuja),National and provincial capital,Abuja,9.05726701257196,7.25638547039281
Nigeria,Kogi,Provincial capital,Lokoja,7.80900308571564,6.73700458050089
Nigeria,Enugu,Provincial capital,Enugu,6.45100197992933,7.49199647082938
Nigeria,Edo,Provincial capital,Benin City,6.33899701293358,5.62599958542094
Nigeria,Delta,Provincial capital,Asaba,6.19299905459814,6.74000148956912
Nigeria,Anambra,Provincial capital,Awka,6.21500407869754,7.0679975488822
Niger,Agadez,Provincial capital,Agadez,16.9939980118416,7.98300055380778
Niger,Tahoua,Provincial capital,Tahoua,14.8910040348671,5.26599948286818
Niger,Niamey,National and provincial capital,Niamey,13.5140040811345,2.12000453121192
Nigeria,Sokoto,Provincial capital,Sokoto,13.057002091097,5.24600161007132
Niger,Dosso,Provincial capital,Dosso,13.0470030719568,3.20400060730537
Nigeria,Kebbi,Provincial capital,Birnin Kebbi,12.4550010020911,4.19699755016816
Burkina Faso,Tapoa,Provincial capital,Diapaga,12.0770010764428,1.79600457130138
Burkina Faso,Gourma,Provincial capital,Fada Ngourma,12.0549960523434,0.360999450827222
Chad,Borkou-Ennedi-Tibesti,Provincial capital,Faya,17.9299980798983,19.1199965398033
Chad,Kanem,Provincial capital,Mao,14.1219989882769,15.3170015085527
Chad,Lac,Provincial capital,Bol,13.4659980990168,14.7167015915634
Niger,Diffa,Provincial capital,Diffa,13.3166970868436,12.6167045236571
Chad,Chari-Baguirmi,National and provincial capital,Ndjamena,12.1041360939776,15.2408255740955
Nigeria,Borno,Provincial capital,Maiduguri,11.8510020288676,13.1609974890897
Nigeria,Yobe,Provincial capital,Damaturu,11.7489960810121,11.9660045724524
Central African Republic,Ouham-Pende,Provincial capital,Bozoum,6.3160020655848,16.3780024718137
Central African Republic,Nana-Mambere,Provincial capital,Bouar,5.93299807956568,15.5930045879468
Central African Republic,Ombella-Mpoko,National and provincial capital,Bangui,4.36585508463298,18.5623475537198
Central African Republic,Basse-Kotto,Provincial capital,Mobaye,4.32000005911767,21.1799975311485
Central African Republic,Lobaye,Provincial capital,Mbaiki,3.8660040797497,17.9939975668136
Congo,Likouala,Provincial capital,Impfondo,1.59986704444393,18.0000004865513
"Congo, DRC",Equateur,Provincial capital,Mbandaka,0.0479970328704269,18.2559965915473
Cameroon,Est,Provincial capital,Bertoua,4.57499697377937,13.6850044746748
Central African Republic,Haute-Sangha,Provincial capital,Berberati,4.24899912965122,15.7850015425811
Cameroon,Centre,National and provincial capital,Yaounde,3.86499611878147,11.5139975411844
Central African Republic,Sangha,Provincial capital,Nola,3.52099812059038,16.0399986227264
Equatorial Guinea,Kie-Ntem,Provincial capital,Ebebiyin,2.15299799566381,11.3300015559892
Equatorial Guinea,Wele-Nzas,Provincial capital,Mongomo,1.62299702645862,11.3110025425593
Congo,Sangha,Provincial capital,Ouesso,1.60499703787935,16.0550015367538
Gabon,Woleu-Ntem,Provincial capital,Oyem,1.59800402940858,11.5790044870307
Gabon,Ogooue-Ivindo,Provincial capital,Makokou,0.561996063197611,12.8570045035773
Cameroon,Extreme-Nord,Provincial capital,Maroua,10.5930000506015,14.3280004996087
Chad,Mayo Kebi,Provincial capital,Bongor,10.2740039855781,15.3710014742905
Chad,Tandjile,Provincial capital,Lai,9.39500112329473,16.305003492646
Cameroon,Nord,Provincial capital,Garoua,9.29799907032636,13.3949975061039
Nigeria,Adamawa,Provincial capital,Yola,9.23900398033537,12.4650005232685
Nigeria,Taraba,Provincial capital,Jalingo,8.88399900203579,11.3689986076996
Chad,Logone Oriental,Provincial capital,Doba,8.6499989850216,16.8509974646116
Chad,Logone Occidental,Provincial capital,Moundou,8.55388806155805,16.0897056113771
Cameroon,Adamoua,Provincial capital,Ngaoundere,7.32400208795862,13.5839975516699
Chad,Salamat,Provincial capital,Am Timan,11.0332981200787,20.2833004940881
Chad,Moyen-Chari,Provincial capital,Sarh,9.14699705162015,18.3960005662626
Central African Republic,Bamingui-Bangoran,Provincial capital,Ndele,8.40999604826968,20.6510045229116
Central African Republic,Gribingui,Provincial capital,Kaga Bandoro,7.00000212804808,19.1666975177845
Central African Republic,Haute-Kotto,Provincial capital,Bria,6.53799607763985,21.9940025491868
Central African Republic,Ouham,Provincial capital,Bossangoa,6.4909980564904,17.4549966033188
Central African Republic,Kemo-Gribingui,Provincial capital,Sibut,5.76669610366382,19.0999985015228
Central African Republic,Ouaka,Provincial capital,Bambari,5.7590011135107,20.6710025611921
Tunisia,Quibili,Provincial capital,Kebili,33.6899970349206,8.97100253790109
Tunisia,Madaniyin,Provincial capital,Medemine,33.3999990024673,10.4166995575966
Tunisia,Tatawin,Provincial capital,Tataouine,33.0000031543208,10.4667035894155
Algeria,Ouargla,Provincial capital,Ghardina,31.9629961632592,5.34200447270541
Libya,Ghadamis,Other,Ghadamis,30.1385970707493,9.81835251326962
Algeria,Tamanghasset,Other,In Salah,27.1999981556348,2.52999956398236
Algeria,Tamanghasset,Other,Tamanrasset,22.8300031531698,5.55000353170132
Algeria,Blida,Provincial capital,Blida,36.4809961098785,2.83400148561236
Algeria,Bouira,Provincial capital,Bouira,36.3809971478419,3.89700049857464
Algeria,Setif,Provincial capital,Setif,36.189000027724,5.41400459250616
Algeria,Bourdj Bou Arrer,Provincial capital,Bordj Bou Arreridj,36.0590040082665,4.62999646640498
Algeria,M'Sila,Provincial capital,M'sila,35.7000030960481,4.54500058387939
Algeria,Djelfa,Provincial capital,Djelfa,34.6809960935658,3.24999960360418
Algeria,Laghouat,Provincial capital,Laghouat,33.8069971261695,2.87800259769358
Algeria,Tizi Ouzou,Provincial capital,Tizi-Ouzou,36.8000011110195,4.0333325563758
Algeria,Alger,National and provincial capital,Algiers,36.7832970249755,3.05000151404727
Algeria,Bejaia,Provincial capital,Bejaia,36.756999023789,5.07799846215281
Algeria,Medea,Provincial capital,Medea,36.2670030672625,2.77599648435441
Algeria,Mostaganem,Provincial capital,Mostaganem,35.9399970966824,0.0900005972875135
Algeria,Mascara,Provincial capital,Mascara,35.399997108337,0.140004463622802
Algeria,Tiaret,Provincial capital,Tiaret,35.3780010203552,1.32599755145415
Algeria,Saida,Provincial capital,Saida,34.8409981065616,0.14900445791244
France,Languedoc-Roussillon,Provincial capital,Montpellier,43.6140001156995,3.8670036066375
France,Midi-Pyrenees,Provincial capital,Toulouse,43.5999960610391,1.43800251844991
France,Provence-Alpes-Cote d'Azur,Provincial capital,Marseille,43.2849960954182,5.38499745833471
Andorra,Andorra,National capital,Andorra La Valla,42.4999980460677,1.51666252811543
Spain,Cataluna,Provincial capital,Barcelona,41.3579971341999,2.15900158292237
Spain,Isles Baleares,Provincial capital,Palma De Mallorca,39.5667000690085,2.64999656429953
Italy,Liguria,Provincial capital,Genoa,44.4130020542268,8.88300047922232
Italy,Toscana,Other,Florence,43.7815710203002,11.2077455382402
Monaco,Monaco,National capital,Monaco,43.7450040961252,7.42400155203242
France,Corse,Provincial capital,Ajaccio,41.9609970825728,8.66199655590032
Algeria,Guelma,Provincial capital,Guelma,36.4660021319687,7.42799748595129
Algeria,Constantine,Provincial capital,Constantine,36.3600000847107,6.60899750914348
Algeria,Oum el Bouaghi,Provincial capital,Oum el Bouaghi,35.8499971537861,7.14999652233956
Algeria,Batna,Provincial capital,Batna,35.5570020467809,6.17200249350412
Algeria,Tebessa,Provincial capital,Tbessa,35.4069990529253,8.1209975427042
Algeria,Biskra,Provincial capital,Biskra,34.8570000454396,5.72699757230819
Tunisia,Tawzar,Provincial capital,Tozeur,33.9239970519348,8.13099656184448
Italy,Sardegna,Provincial capital,Cagliari,39.224997163687,9.1089995267975
Tunisia,Banzart,Provincial capital,Bizerte,37.2974580638051,9.86192154751663
Tunisia,Aryanah,Provincial capital,L'Ariana,36.8666731534448,10.1999975474793
Tunisia,Tunis,National and provincial capital,Tunis,36.8190001244494,10.1660045561397
Tunisia,Bajah,Provincial capital,Beja,36.7250040821506,9.19199752510551
Tunisia,Jundubah,Provincial capital,Jendouba,36.500004059426,8.74999861457906
Tunisia,Al Kaf,Provincial capital,Le Kef,36.16669812594,8.66670357310278
Tunisia,Silyanah,Provincial capital,Siliana,36.0833041252355,9.38330159965864
Tunisia,Al Qasrayn,Provincial capital,Kasserine,35.2167031048241,8.71669850332049
Tunisia,Sidi Bu Zayd,Provincial capital,Sdid Bouzid,35.0166960791496,9.50000448225563
Tunisia,Safaqis,Other,Sfax,34.7452380084556,10.7592575169853
Tunisia,Qafsah,Provincial capital,Gafsa,34.4220030795015,8.78699761658822
Tunisia,Qabis,Provincial capital,Gabes,33.893001135147,10.1030045961122
Tunisia,Nabul,Provincial capital,Nabeul,36.4560031128285,10.7350025770553
Tunisia,Zaghwan,Provincial capital,Zaghouan,36.3999961612718,10.1469966065922
Tunisia,Susah,Provincial capital,Sousse,35.8295491654361,10.635876541321
Tunisia,Al Munastir,Provincial capital,Monasir,35.7307021351513,10.767294561862
Tunisia,Al Qayrawan,Provincial capital,Kairouan,35.7000030960481,10.0167035439664
Tunisia,Al Mahdiyah,Provincial capital,Mahdia,35.4839130445026,11.0408766153219
Italy,Puglia,Provincial capital,Bari,41.1000031449863,16.8667025258049
Italy,Molise,Provincial capital,Campobasso,41.5629991186439,14.6559965589218
Italy,Campania,Other,Naples,40.8333601523243,14.2500245993904
Italy,Basilicata,Provincial capital,Potenza,40.6420021300982,15.7989964956402
Italy,Calabria,Provincial capital,Catanzaro,38.9040030489623,16.5909964895791
Italy,Sicilia,Provincial capital,Palermo,38.121003049313,13.3589975289454
Malta,Malta,National capital,Valletta,35.9129971138135,14.5040046169663
Italy,Emilia-Romagna,Provincial capital,Bologna,44.5030021626068,11.3339974899081
San Marino,San Marino,National capital,San Marino,43.916661123239,12.4666656198475
Italy,Marche,Provincial capital,Ancona,43.6210020602879,13.5160024673893
Italy,Umbria,Provincial capital,Perugia,43.1129970135808,12.3849995995125
Italy,Abruzzi,Provincial capital,Aquila,42.3594360604535,13.4108104626431
Italy,Lazio,National and provincial capital,Rome,41.8799971339661,12.519999513857
Bosnia & Herzegovina,Bosnia & Herzegovina,National capital,Sarajevo,43.8699960552118,18.4300024937199
Albania,Tropoje,Provincial capital,Bajram Curri,42.3333000677693,20.0833025700148
Albania,Shkoder,Provincial capital,Shkoder,42.0740010744192,19.5280026244737
Albania,Lezhe,Provincial capital,Lezhe,41.7879991413685,19.6540025445286
Albania,Durres,Provincial capital,Durres,41.3270010519285,19.4540046204554
Albania,Fier,Provincial capital,Fier,40.7300040232933,19.5730025959219
Albania,Vlore,Provincial capital,Vlore,40.4720010979621,19.4900045976139
Serbia,Serbia,National capital,Belgrade,44.7996781226437,20.4125586219091
Montenegro,Montenegro,National capital,Podgorica,42.4999980460677,19.4000044892339
Albania,Kolonje,Provincial capital,Erseke,40.3333021273833,20.6832965077182
Macedonia,Macedonia,National capital,Skopje,41.9833350597946,21.4333386163162
Albania,Pogradec,Provincial capital,Pogradec,40.8999961193118,20.6640006166037
Albania,Korce,Provincial capital,Korce,40.6166760144422,20.7666635345863
Greece,Ipiros,Provincial capital,Ioannina,39.6579960799238,20.8530004966861
Greece,Thessalia,Provincial capital,Larisa,39.6399960913445,22.4190004959846
Albania,Lushnje,Provincial capital,Lushnje,40.9400011319905,19.7160034797054
Albania,Gramsh,Provincial capital,Gramsh,40.8666960080533,20.1999965164942
Albania,Berat,Provincial capital,Berat,40.7099970488952,19.9719995847015
Albania,Skrapar,Provincial capital,Corovode,40.516704026242,20.2332966277528
Albania,Tepelene,Provincial capital,Tepelene,40.2832980955644,20.0332985381959
Albania,Permet,Provincial capital,Permet,40.2339960454278,20.3519975600511
Albania,Gjirokaster,Provincial capital,Gjirokaster,40.0789980928027,20.1490025614259
Albania,Sarande,Provincial capital,Sarande,39.8770021190282,19.999998592421
Greece,Ionian Islands,Provincial capital,Kerkya,39.619998053064,19.9199975031812
Albania,Dibre,Provincial capital,Peshkopi,41.683302098247,20.4333034879436
Albania,Kukes,Provincial capital,Kukes,42.0830010687089,20.4339965335084
Albania,Puke,Provincial capital,Puke,42.0333030161758,19.8833044804579
Albania,Mirdite,Provincial capital,Rreshen,41.7833010602836,19.8167045889081
Albania,Mat,Provincial capital,Burrel,41.6259990786714,20.016000531299
Albania,Kruje,Provincial capital,Kruje,41.5189981720464,19.7970035937958
Albania,Tirane,National and provincial capital,Tirana,41.331996010698,19.8320045461037
Albania,Librazhd,Provincial capital,Librazhd,41.200002107023,20.3667035963938
Albania,Elbasan,Provincial capital,Elbasan,41.117004108715,20.0930045459868
Greece,Central Greece and Evvoia,Provincial capital,Lamia,38.8989991540752,22.4340035754957
Greece,Peloponnisos,Other,Patras,38.1412350814877,21.8831764877793
Greece,Peloponnisos,Provincial capital,Tripoli,37.5080040817998,22.3689966296494
Libya,Tarabulus,National and provincial capital,Tripoli,32.8931280152768,13.1568934943414
Libya,Az Zawiyah,Provincial capital,Az Zawiyah,32.7539971323475,12.7299964570705
Libya,Al Khums,Provincial capital,Al Khums,32.6503080501942,14.2699774606319
Libya,Misratah,Provincial capital,Misratah,32.3739991569979,15.09499856038
Libya,Gharyan,Provincial capital,Gharyan,32.1660000980019,13.0167005372872
Libya,Banghazi,Provincial capital,Benghazi,32.1219991514044,20.0680026128192
Libya,Ajdabiya,Provincial capital,Ajdabiya,30.7600021116992,20.2239995902949
Libya,Sabha,Provincial capital,Sabha,27.0649980758066,14.4309965361973
Libya,Murzuq,Other,Murzuq,25.9100010702467,13.9100044973993
Turkey,Zonguldak,Provincial capital,Zonguldak,41.4559980465353,31.798998552898
Turkey,Bolu,Provincial capital,Bolu,40.739004017583,31.6119965570333
Turkey,Cankiri,Provincial capital,Cankiri,40.6070010123067,33.6210035933101
Turkey,Ankara,National and provincial capital,Ankara,39.9290040350648,32.8529975715707
Cyprus,Kyrenia,Provincial capital,Kyrenia,35.3259991043186,33.3330036105581
Cyprus,Nicosia,National and provincial capital,Nicosia,35.1710011516935,33.3690035877167
Cyprus,Larnaca,Provincial capital,Larnaka,34.9170030963988,33.6359975712199
Cyprus,Paphos,Provincial capital,Paphos,34.7499991388146,32.4167045376137
Cyprus,Limassol,Provincial capital,Lemesos,34.6830030793846,33.0509976114263
Libya,Darnah,Provincial capital,Darnah,32.7540060684651,22.6389966238221
Egypt,Marsa Matruh,Provincial capital,Marsa Matruh,31.3499970302624,27.2369974941975
Egypt,Al Minya,Provincial capital,El Minya,28.0890000370584,30.7590035888857
Egypt,Asyut,Provincial capital,Asyut,27.1839960512731,31.1850005605342
Egypt,Suhaj,Provincial capital,Sohag,26.5449961257417,31.6950034914588
Egypt,Qina,Provincial capital,Qena,26.1620010758402,32.7300034967016
Egypt,Al Wadi al Jadid,Provincial capital,El-Kharga,25.4359981164806,30.55699851351
Egypt,Aswan,Provincial capital,Aswan,24.0779970106943,32.918004517417
Egypt,Dumyat,Provincial capital,Dumyat,31.4219971500631,31.8130026075584
Egypt,Bur Sa'id,Provincial capital,Port Said,31.2570000128141,32.292000520094
Egypt,Al Iskandariyah,Other,Alexandria,31.2044940335516,29.9051016189982
Egypt,Kafr ash Shaykh,Provincial capital,Kafr el Sheikh,31.1090040047774,30.9359976294926
Egypt,Ad Daqahliyah,Provincial capital,El Mansura,31.0390021001616,31.3800035258379
Egypt,Al Buhayrah,Provincial capital,Damanhur,31.030002105872,30.4720026309844
Egypt,Al Minufiyah,Provincial capital,Shibin el Kom,30.5919991292644,30.8999974868504
Egypt,Al Fayyum,Provincial capital,El Faiyum,29.3166630686637,30.8333345460264
Egypt,Janub Sina',Other,Abu Zenima,28.8072451224744,33.2237345849001
Egypt,Janub Sina',Provincial capital,El Tur,28.2332971543446,33.6167015146218
Egypt,Al Gharbiyah,Provincial capital,Tanta,30.7790011251291,30.9960005149682
Egypt,Al Isma'iliyah,Provincial capital,Ismailia,30.5890020547125,32.2659995620757
Egypt,Ash Sharqiyah,Provincial capital,Zagizig,30.5833320880971,31.5166596006438
Egypt,Al Qalyubiyah,Provincial capital,Benha,30.4666651154541,31.1833356294389
Egypt,Al Qahirah,National and provincial capital,Cairo,30.0779100758266,31.2507995111735
Egypt,Al Jizah,Other,Giza,30.0515131154118,31.2209555261374
Egypt,As Suways,Other,Suez,29.9600011483213,32.5600026300491
Egypt,Bani Suwayf,Provincial capital,Beni Suef,29.0760029963011,31.0969985018554
Greece,Central Greece and Evvoia,Other,Piraeus,37.9562940191147,23.6883784829192
Turkey,Manisa,Provincial capital,Manisa,38.6190001407622,27.429003550433
Turkey,Izmir,Provincial capital,Izmir,38.4329970042644,27.1449995015999
Greece,Aegean Islands,Provincial capital,Chios,38.3730030549065,26.1389975289273
Turkey,Aydin,Provincial capital,Aydin,37.8559980139098,27.8420045938729
Greece,Crete,Provincial capital,Iraklion,35.3379960076765,25.134003517223
Greece,Central Greece and Evvoia,National capital,Athens,37.9440000725886,23.6529995659336
Greece,Thraki,Provincial capital,Komatini,41.1333030907613,25.4167025619196
Bulgaria,Khaskovo,Provincial capital,Kurdzhali,41.9360040855228,25.5680016237941
Turkey,Kirklareli,Provincial capital,Kirklareli,41.7429991699203,27.2259996156902
Turkey,Edirne,Provincial capital,Edirne,41.6819970941105,26.5619975915075
Turkey,Tekirdag,Provincial capital,Tekirdag,40.9846951241528,27.5166635543881
Greece,Macedonia,Other,Thessaloniki,40.6299961251391,22.7999974961849
Greece,Macedonia,Provincial capital,Polygyros,40.3810021302151,23.4530014763768
Turkey,Canakkale,Provincial capital,Canakkale,40.15500308264,26.4140015834708
Turkey,Balikesir,Provincial capital,Balikesir,39.6479970607835,27.882999529801
Romania,Arges,Provincial capital,Pitesti,44.8540021053863,24.8830025364801
Romania,Mehedinti,Provincial capital,Drobeta- Turmu Sererin,44.6380020769514,22.6559975875507
Romania,Olt,Provincial capital,Slatina,44.4349981422086,24.3710015558542
Romania,Dolj,Provincial capital,Craiova,44.3250001610317,23.8130015789295
Romania,Teleorman,Provincial capital,Alexandria,43.9016310698915,25.2867065424622
Bulgaria,Mikhaylovgrad,Provincial capital,Montana,43.4140020261426,23.2370016134255
Bulgaria,Lovech,Provincial capital,Lovec,43.1379991122321,24.7190045895654
Bulgaria,Grad Sofiya,National capital and provincial capital enclave,Sofia,42.7072681495448,23.3318705820267
Romania,Dimbovita,Provincial capital,Targoviste,44.9379991285449,25.4590025019841
Romania,Prahova,Provincial capital,Ploiesti,44.9360010788436,26.0370005171894
Romania,Ialomita,Provincial capital,Slobozia,44.5699980565531,27.381996593166
Romania,Bucuresti,National and provincial capital,Bucharest,44.4304801073449,26.1229686162128
Romania,Calarasi,Provincial capital,Calarasi,44.2040041358639,27.4110035618537
Romania,Giurgiu,Provincial capital,Giurgiu,43.9299991061711,25.8399995021844
Bulgaria,Razgrad,Provincial capital,Razgrad,43.5339990264598,26.5359966334892
Bulgaria,Varna,Provincial capital,Varna,43.2060031326304,27.9070026036016
Bulgaria,Burgas,Provincial capital,Burgas,42.5279970537872,27.4640045027409
Romania,Constanta,Provincial capital,Constanta,44.1330030409138,28.6309985771423
Turkey,Istanbul,Provincial capital,Istanbul,41.0660010520454,29.0060015937225
Turkey,Kocaeli,Provincial capital,Kocaeli,40.7739960337733,29.9230024828656
Turkey,Sakarya,Provincial capital,Sakarya,40.7666611360626,30.4000025111836
Turkey,Bursa,Provincial capital,Bursa,40.195998018568,29.0750044734876
Turkey,Bilecik,Provincial capital,Bilecik,40.1499990222692,29.9829965977073
Turkey,Eskisehir,Provincial capital,Eskisehir,39.7839961654624,30.5190004866502
Turkey,Kutahya,Provincial capital,Kutahya,39.4190011041401,29.9799995231554
Turkey,Afyon,Provincial capital,Afyon,38.763999074247,30.5399975497813
Turkey,Usak,Provincial capital,Usak,38.6820001007897,29.4080045931715
Turkey,Konya,Provincial capital,Konya,37.8780030380092,32.4819995905106
Turkey,Denizli,Provincial capital,Denizli,37.7769961150043,29.0860025174785
Turkey,Isparta,Provincial capital,Isparta,37.7649990461628,30.55699851351
Turkey,Burdur,Provincial capital,Burdur,37.7166601109228,30.2833355385407
Turkey,Mugla,Provincial capital,Mugla,37.2200040990478,28.3670015027074
Turkey,Antalya,Provincial capital,Antalya,36.8929981284678,30.7089995570668
Russia,Respublika Adygeya,Provincial capital,Majkop,44.6030011246434,40.0879985891295
Georgia,Abkhazia,Provincial capital,Sokhumi,43.0070040679241,40.9889975393947
Turkey,Elazig,Provincial capital,Elazig,38.681001075939,39.2259965250911
Turkey,Malatya,Provincial capital,Malatya,38.3550030663272,38.3090045720656
Turkey,Adiyaman,Provincial capital,Adiyaman,37.7649990461628,38.2789985785272
Turkey,Kahraman Maras,Provincial capital,Kahramanmaras,37.5859980197371,36.9369995771025
Turkey,Urfa,Provincial capital,Sanhurfa,37.159002023238,38.7970026443745
Turkey,Gaziantep,Provincial capital,Aintab,37.0690020803416,37.3899965316199
Russia,Karachayevo-Cherkesskaya Resp.,Provincial capital,Cherkessk,44.2819980738011,42.0630035324655
Turkey,Kirsehir,Provincial capital,Kirsehir,39.141999165379,34.1710026007959
Turkey,Kayseri,Provincial capital,Kayseri,38.7309960061567,35.4789995092796
Turkey,Nevsehir,Provincial capital,Nevsehir,38.6240040356493,34.7239985173498
Turkey,Nigde,Provincial capital,Nigde,37.9760041158282,34.6940016254127
Turkey,Adana,Provincial capital,Seyhan,36.9999990350928,35.3240015566545
Turkey,Icel,Provincial capital,Mersin,36.7970040364676,34.6460045794126
Turkey,Hatay,Provincial capital,Antioch,36.2333340929275,36.1166765584393
Syria,Al Ladhiqiyah,Provincial capital,Al Ladhiqiyah,35.5210020696224,35.7920015906829
Cyprus,Farmagusta,Provincial capital,Ammochostos,35.1060031419648,33.9499985119902
Syria,Tartus,Provincial capital,Tartus,34.8920011632312,35.8980036379409
Lebanon,Ash Shamal,Other,Tripoli,34.3437571099513,36.0070745796589
Lebanon,Bayrut,National and provincial capital,Beirut,33.8833261330114,35.4999965724107
Lebanon,Al Biqa',Provincial capital,Zahle,33.842997103328,35.9190005355884
Lebanon,Jabal Lubnan,Provincial capital,B'abda,33.8333040634736,35.5332965181857
Syria,Halab,Other,Aleppo,36.2155411244059,37.1592815307246
Syria,Ar Raqqah,Provincial capital,Ar Raqqah,35.9469990412708,39.0369966450088
Syria,Idlib,Provincial capital,Idlib,35.9330040882116,36.6409986249115
Syria,Hamah,Provincial capital,Hamah,35.1379980836032,36.7520045670566
Syria,Hims,Other,Homs,34.7338711013883,36.7181735842193
Turkey,Sinop,Provincial capital,Sinop,42.0229980177497,35.1530014996678
Turkey,Kastamonu,Provincial capital,Kastamonu,41.389002152589,33.7830034905236
Turkey,Samsun,Provincial capital,Samsun,41.2929991244712,36.3310025541777
Turkey,Amasya,Provincial capital,Amasya,40.6500030995372,35.8350035124298
Turkey,Corum,Provincial capital,Corum,40.5540000714195,34.9640016195854
Turkey,Yozgat,Provincial capital,Yozgat,39.8179980929196,34.8149974850968
Ukraine,Crimean,Provincial capital,Simferopol',44.9620020368619,34.1039976052483
Turkey,Ordu,Provincial capital,Ordu,40.984002078588,37.8759965542275
Turkey,Giresun,Provincial capital,Giresun,40.9130011491216,38.3900045206723
Turkey,Tokat,Provincial capital,Tokat,40.3059961652285,36.5630045214906
Turkey,Sivas,Provincial capital,Sivas,39.7479960228202,37.0179995257092
Georgia,Ajaria,Provincial capital,Bat'umi,41.6333250402645,41.6333255423017
Turkey,Artvin,Provincial capital,Coruh,41.1830011432943,41.8179965353428
Turkey,Rize,Provincial capital,Rize,41.0200020557466,40.5230044911852
Turkey,Trabzon,Provincial capital,Trabzon,41.0010030423167,39.7179996329202
Turkey,Gumshane,Provincial capital,Gumushane,40.4640001285231,39.483999615906
Turkey,Erzurum,Provincial capital,Erzurum,39.9040021018971,41.2920006016577
Turkey,Erzincan,Provincial capital,Erzincan,39.7400041549824,39.5049965135535
Russia,Kabardino-Balkarskaya Resp.,Provincial capital,Nal'chik,43.4819971104232,43.2860045584236
Russia,Respublika Severnaya Osetiya,Provincial capital,Vladikavkaz,43.0499970535534,44.666676594554
Russia,Ingushskaya Respublika,Provincial capital,Nazran,43.2330031154993,44.7830015124733
Georgia,T'bilisi,National and provincial capital,T'Bilisi,41.7218131244503,44.7831276110216
Turkey,Kars,Provincial capital,Kars,40.5929971231299,43.0779965633101
Armenia,Armenia,National capital,Yerevan,40.2080311628472,44.5326755395764
Turkey,Agri,Provincial capital,Agri,39.7240020506208,43.0620035605497
Turkey,Tunceli,Provincial capital,Tunceli,39.1167000235594,39.5333015005589
Turkey,Bingol,Provincial capital,Bingol,38.8850040355324,40.4980025580176
Turkey,Mus,Provincial capital,Mus,38.7299971467897,41.5019975448713
Turkey,Bitlis,Provincial capital,Bitlis,38.3940001180377,42.1229976473071
Turkey,Siirt,Provincial capital,Siirt,37.9440000725886,41.9329985768905
Turkey,Diyarbakir,Provincial capital,Diyarbakir,37.9140030151677,40.2309996383967
Turkey,Mardin,Provincial capital,Mardin,37.3079970561253,40.750002563611
Syria,Al Hasakah,Provincial capital,Al-Hasakah,36.4930021148376,40.7670035273397
Syria,Dayr az Zawr,Provincial capital,Dayr az Zawr,35.3359981234589,40.1540045598265
Turkey,Van,Provincial capital,Van,38.4890041213048,43.4089986332927
Turkey,Hakkari,Provincial capital,Hakkari,37.5679980311578,43.7509985817825
Iraq,Dahuk,Provincial capital,Dahuk,36.8667001272812,43.0000026253729
Iraq,Ninawa,Other,Al Mawsil,36.3355650985595,43.1371265224833
Iraq,Arbil,Provincial capital,Arbil,36.1800000334343,44.0160036171857
Iraq,At Ta'min,Provincial capital,Kirkuk,35.4690001535858,44.3909975321646
Iraq,Salah ad Din,Provincial capital,Samarra,34.1939970461075,43.8750006176198
Saudi Arabia,Al Qurayyat,Provincial capital,An Nabk,31.3333020458196,37.3332965344984
Jordan,At Tafilah,Provincial capital,At Tafilah,30.8333340439893,35.6000046360486
